"stop_id","stop_name","stop_lat","stop_lon","source_table","bus_lines"
100014,"BEDFORD PK BL/GRAND CONCOURSE","40.872562","-73.888153","bronx","['BX26']"
100017,"PAUL AV/W 205 ST","40.876808","-73.889656","bronx","['BX28', 'BX10', 'BX38']"
100018,"PAUL AV/W MOSHOLU PY S","40.880341","-73.886063","bronx","['BX28', 'BX38']"
100019,"GRAND CONCOURSE/E 138 ST","40.813496","-73.929489","bronx","['BX1']"
100020,"GRAND CONCOURSE/E 144 ST","40.816803","-73.927956","bronx","['BX1']"
100021,"GRAND CONCOURSE/E 149 ST","40.818851","-73.92701","bronx","['BX1', 'BX2']"
100022,"GRAND CONCOURSE/E 153 ST","40.821041","-73.925613","bronx","['BX1', 'BX2']"
100025,"GRAND CONCOURSE/E 161 ST","40.826431","-73.922661","bronx","['BX1', 'BX2', 'BXM4']"
100026,"GRAND CONCOURSE/E 163 ST","40.828838","-73.921326","bronx","['BX1', 'BX2']"
100027,"GRAND CONCOURSE/E 165 ST","40.831318","-73.919937","bronx","['BX1', 'BX2', 'BXM4']"
100028,"GRAND CONCOURSE/MC CLELLAN ST","40.833275","-73.918556","bronx","['BX1', 'BX2']"
100029,"GRAND CONCOURSE/E 167 ST","40.834763","-73.91713","bronx","['BX1', 'BX2']"
100030,"GRAND CONCOURSE/E 169 ST","40.836571","-73.915367","bronx","['BX1', 'BX2']"
100033,"GRAND CONCOURSE/MT EDEN AV","40.84351","-73.91156","bronx","['BX1', 'BX2']"
100035,"GRAND CONCOURSE/E 175 ST","40.846741","-73.908554","bronx","['BX1', 'BX2']"
100038,"GRAND CONCOURSE/E 179 ST","40.850929","-73.904495","bronx","['BX1', 'BX2']"
100039,"GRAND CONCOURSE/E BURNSIDE AV","40.852089","-73.903564","bronx","['BX1', 'BX2', 'BXM4']"
100040,"GRAND CONCOURSE/E 180 ST","40.853718","-73.902245","bronx","['BX1', 'BX2']"
100041,"GRAND CONCOURSE/E 182 ST","40.856255","-73.90036","bronx","['BX1', 'BX2']"
100044,"GRAND CONCOURSE/E 187 ST","40.860569","-73.897865","bronx","['BX1', 'BX2']"
100045,"GRAND CONCOURSE/E FORDHAM RD","40.863068","-73.896355","bronx","['BX1', 'BX2', 'BXM4']"
100047,"GRAND CONCOURSE/E KINGSBRIDGE RD","40.866344","-73.89386","bronx","['BX1', 'BX2']"
100048,"GRAND CONCOURSE/E 196 ST","40.86808","-73.89254","bronx","['BX1', 'BX2', 'BXM4']"
100049,"GRAND CONCOURSE/E 198 ST","40.870243","-73.890419","bronx","['BX1', 'BX2']"
100052,"GRAND CONCOURSE/E 206 ST","40.876297","-73.88549","bronx","['BX1', 'BX2']"
100053,"GRAND CONCOURSE/E MOSHOLU PY S","40.877907","-73.884727","bronx","['BX1', 'BX2', 'BX28', 'BX38']"
100054,"E MOSHOLU PY S/JEROME AV","40.879505","-73.885574","bronx","['BX1', 'BX2', 'BX28', 'BX38']"
100055,"W MOSHOLU PY S/PAUL AV","40.880379","-73.885826","bronx","['BX1', 'BX2']"
100056,"SEDGWICK AV/DICKINSON AV","40.882824","-73.889114","bronx","['BX1', 'BX2', 'BX10']"
100057,"SEDGWICK AV/HILLMAN AV","40.882504","-73.891365","bronx","['BX1', 'BX2', 'BX10']"
100058,"SEDGWICK AV/VAN CORTLANDT AV W","40.882828","-73.893364","bronx","['BX1', 'BXM3', 'BX2']"
100059,"SEDGWICK AV/STEVENSON PL","40.88269","-73.895187","bronx","['BX1', 'BX2']"
100060,"SEDGWICK AV/GILES PL","40.880924","-73.896698","bronx","['BX1', 'BXM3', 'BX2']"
100061,"SEDGWICK AV/FT INDEPENDENCE ST","40.878746","-73.898033","bronx","['BX1', 'BX2']"
100062,"HEATH AV/SUMMIT PL","40.877892","-73.90152","bronx","['BX1']"
100063,"ALBANY CR/BAILEY AV","40.876877","-73.903175","bronx","['BX1']"
100064,"W 231 ST/BAILEY AV","40.878231","-73.902771","bronx","['BX1', 'BX10']"
100065,"W 231 ST/BROADWAY","40.879284","-73.905373","bronx","['BX1', 'BX20', 'BX10', 'BX7']"
100066,"W 231 ST/KINGSBRIDGE AV","40.880047","-73.906868","bronx","['BX1', 'BX20', 'BX10', 'BX7']"
100068,"RIVERDALE AV/GREYSTONE AV","40.88435","-73.907387","bronx","['BX7']"
100069,"RIVERDALE AV/W 236 ST","40.886951","-73.90696","bronx","['BX7']"
100070,"RIVERDALE AV/W 238 ST","40.888111","-73.907425","bronx","['BX7']"
100071,"HENRY HUDSON PKY E/W 239 ST","40.889538","-73.908058","bronx","['BXM18', 'BX20', 'BX7', 'BXM1', 'BXM2', 'BX10']"
100076,"RIVERDALE AV/W 238 ST","40.887913","-73.907578","bronx","['BX7']"
100077,"RIVERDALE AV/W 236 ST","40.886238","-73.907112","bronx","['BXM1', 'BXM2', 'BX7']"
100080,"PAUL AV/BEDFORD PK BL","40.874676","-73.891602","bronx","['BX26', 'BX28', 'BX10', 'BX22', 'BX38']"
100082,"W 231 ST/RIVERDALE AV","40.881111","-73.909027","bronx","['BX20', 'BX10', 'BX7']"
100084,"W 231 ST/BROADWAY","40.878696","-73.904411","bronx","['BX1', 'BX2', 'BX10']"
100085,"W 231 ST/BAILEY AV","40.878029","-73.902634","bronx","['BX1', 'BX2', 'BX10']"
100086,"HEATH AV/ALBANY CRES","40.876835","-73.902351","bronx","['BX1', 'BX2']"
100087,"HEATH AV/SUMMIT PL","40.878323","-73.900955","bronx","['BX1', 'BX2']"
100088,"SEDGWICK AV/FT INDEPENDENCE ST","40.878632","-73.897751","bronx","['BX1', 'BXM3', 'BX2']"
100089,"SEDGWICK AV/GILES PL","40.8815","-73.896446","bronx","['BX1', 'BXM3', 'BX2']"
100090,"SEDGWICK AV/STEVENSON PL 1","40.882912","-73.894363","bronx","['BX1', 'BX2']"
100096,"GRAND CONCOURSE/VAN CORTLANDT AV E","40.876965","-73.885757","bronx","['BX1', 'BX2']"
100098,"GRAND CONCOURSE/BEDFORD PK BL","40.871902","-73.888451","bronx","['BX1', 'BX2', 'BXM4']"
100100,"GRAND CONCOURSE/E 196 ST","40.868073","-73.893158","bronx","['BX1', 'BX2', 'BXM4']"
100101,"GRAND CONCOURSE/E KINGSBRIDGE RD","40.865799","-73.89489","bronx","['BX1', 'BX2', 'BXM4']"
100102,"GRAND CONCOURSE/E 192 ST","40.863998","-73.896255","bronx","['BX1', 'BX2']"
100103,"GRAND CONCOURSE/E FORDHAM RD","40.862236","-73.897545","bronx","['BX1', 'BX2', 'BXM4']"
100107,"GRAND CONCOURSE/E 182 ST","40.85582","-73.90123","bronx","['BX1', 'BX2']"
100108,"GRAND CONCOURSE/E 181 ST","40.854279","-73.902428","bronx","['BX1', 'BX2']"
100109,"GRAND CONCOURSE/E BURNSIDE AV","40.852654","-73.903732","bronx","['BX1', 'BX2', 'BXM4']"
100110,"GRAND CONCOURSE/E 179 ST","40.85125","-73.904869","bronx","['BX1', 'BX2']"
100112,"GRAND CONCOURSE/MORRIS AV","40.846302","-73.90995","bronx","['BX1', 'BX2']"
100113,"GRAND CONCOURSE/E 174 ST","40.84486","-73.911552","bronx","['BX1', 'BX2']"
100114,"GRAND CONCOURSE/E MT EDEN AV","40.842907","-73.912308","bronx","['BX1', 'BX2']"
100115,"GRAND CONCOURSE/E 172 ST","40.840637","-73.913071","bronx","['BX1', 'BX2']"
100117,"GRAND CONCOURSE/E CLARKE PL","40.836746","-73.915848","bronx","['BX1', 'BX2']"
100118,"GRAND CONCOURSE/E 167 ST","40.834229","-73.918304","bronx","['BX1', 'BX2']"
100119,"GRAND CONCOURSE/MC CLELLAN ST","40.833256","-73.919212","bronx","['BX1', 'BX2']"
100126,"MELROSE AV/E 158 ST","40.822025","-73.915092","bronx","['BX41']"
100129,"MELROSE AV/E 152 ST","40.817928","-73.91703","bronx","['BX41']"
100131,"GRAND CONCOURSE/E 165 ST","40.831173","-73.920601","bronx","['BX1', 'BX2', 'BXM4']"
100132,"GRAND CONCOURSE/E 163 ST","40.828369","-73.922157","bronx","['BX1', 'BX2']"
100133,"GRAND CONCOURSE/E 161 ST","40.826286","-73.923134","bronx","['BX1', 'BX2']"
100134,"GRAND CONCOURSE/E 158 ST","40.825108","-73.923836","bronx","['BX1', 'BX2', 'BXM4']"
100135,"GRAND CONCOURSE/E 156 ST","40.82312","-73.924751","bronx","['BX1', 'BX2']"
100136,"GRAND CONCOURSE/E 153 ST","40.821209","-73.925987","bronx","['BX1', 'BX2']"
100138,"GRAND CONCOURSE/E 149 ST","40.818752","-73.927422","bronx","['BX1']"
100139,"GRAND CONCOURSE/E 144 ST","40.816181","-73.928513","bronx","['BX1']"
100140,"GRAND CONCOURSE/E 138 ST","40.813484","-73.930283","bronx","['BX1']"
100148,"UNIVERSITY AV/N OF WASHINGTON BDG","40.846039","-73.921471","bronx","['BX36', 'BX3']"
100149,"UNIVERSITY AV/W 174 ST","40.846943","-73.920189","bronx","['BX36', 'BX3']"
100151,"UNIVERSITY AV/W 176 ST","40.849297","-73.917015","bronx","['BX36', 'BX3', 'BX18']"
100152,"UNIVERSITY AV/W TREMONT AV","40.850243","-73.915443","bronx","['BX36', 'BX3']"
100153,"UNIVERSITY AV/MORTON PL","40.852184","-73.913574","bronx","['BX3']"
100154,"UNIVERSITY AV/W BURNSIDE AV #1","40.853577","-73.912247","bronx","['BX3']"
100155,"UNIVERSITY AV/W BURNSIDE AV","40.854664","-73.911194","bronx","['BX3', 'BX42', 'BX40']"
100156,"UNIVERSITY AV/W 181 ST","40.857433","-73.909622","bronx","['BX3']"
100157,"UNIVERSITY AV/W 183 ST","40.859821","-73.90744","bronx","['BX3']"
100158,"UNIVERSITY AV/W 183 ST","40.861176","-73.90625","bronx","['BX3']"
100159,"UNIVERSITY AV/W FORDHAM RD","40.862915","-73.904755","bronx","['BX3']"
100161,"UNIVERSITY AV/W 190 ST","40.86552","-73.903038","bronx","['BX3']"
100162,"UNIVERSITY AV/W 192 ST","40.867222","-73.901764","bronx","['BX3']"
100164,"W KINGSBRIDGE RD/SEDGWICK AV","40.869541","-73.903603","bronx","['BX9', 'BX3']"
100165,"SEDGWICK AV/W 195 ST","40.870705","-73.902504","bronx","['BX3']"
100166,"SEDGWICK AV/W 197 ST","40.872787","-73.901962","bronx","['BX3', 'BXM3']"
100167,"SEDGWICK AV/W 229 ST","40.873611","-73.90168","bronx","['BX3']"
100169,"FT INDEPENDENCE/GILES PL","40.878639","-73.898994","bronx","['BX3']"
100170,"FT INDEPENDENCE ST/BAILEY PL","40.880714","-73.899078","bronx","['BX3']"
100171,"W 238 ST/ORLOFF AV","40.883003","-73.897774","bronx","['BX3']"
100172,"W 238 ST/BAILEY AV","40.884296","-73.89827","bronx","['BX3']"
100173,"W 238 ST/BROADWAY","40.885086","-73.900436","bronx","['BX3']"
100176,"W 238 ST/BROADWAY","40.884968","-73.900475","bronx","['BX3']"
100177,"W 238 ST/BAILEY AV","40.884071","-73.898232","bronx","['BX3']"
100178,"W 238 ST/ORLOFF AV","40.882504","-73.89814","bronx","['BX3']"
100179,"FT INDEPENDENCE ST/BAILEY PL","40.881016","-73.8992","bronx","['BX3']"
100180,"FT INDEPENDENCE ST/HEATH AV","40.878971","-73.899689","bronx","['BX3']"
100182,"SEDGWICK AV/W 229 ST","40.873417","-73.901932","bronx","['BX3']"
100183,"SEDGWICK AV/W 197 ST","40.8722","-73.902328","bronx","['BX3', 'BXM3']"
100184,"SEDGWICK AV/W 195 ST","40.870312","-73.902954","bronx","['BX3']"
100187,"UNIVERSITY AV/W 192 ST","40.867104","-73.902084","bronx","['BX3']"
100188,"UNIVERSITY AV/W 190 ST","40.865082","-73.903603","bronx","['BX3']"
100189,"UNIVERSITY AV/W FORDHAM RD","40.862915","-73.904953","bronx","['BX3']"
100191,"UNIVERSITY AV/W 183 ST","40.859386","-73.908119","bronx","['BX3']"
100195,"UNIVERSITY AV/W TREMONT AV","40.85043","-73.915726","bronx","['BX36', 'BX3', 'BX18']"
100197,"UNIVERSITY AV/W 176 ST","40.848679","-73.918098","bronx","['BX36', 'BX3']"
100198,"UNIVERSITY AV/W 174 ST","40.846844","-73.920792","bronx","['BX36', 'BX3']"
100199,"UNIVERSITY AV/WASHINGTON BRIDGE","40.84531","-73.922462","bronx","['BX36', 'BX3']"
100204,"WESTCHESTER AV/ST ANNS AV","40.815952","-73.912163","bronx","['BX4', 'BX4A']"
100206,"WESTCHESTER AV/JACKSON AV","40.816113","-73.908356","bronx","['BX4', 'BX4A']"
100207,"WESTCHESTER AV/E 156 ST","40.817829","-73.905426","bronx","['BX4', 'BX4A']"
100209,"WESTCHESTER AV/PROSPECT AV","40.819412","-73.902023","bronx","['BX4', 'BX4A']"
100211,"WESTCHESTER AV/REV J POLITE AV","40.8209","-73.899139","bronx","['BX4', 'BX4A']"
100212,"WESTCHESTER AV/INTERVALE AV","40.821941","-73.897087","bronx","['BX4', 'BX4A']"
100213,"WESTCHESTER AV/TIFFANY ST","40.82299","-73.895065","bronx","['BX4', 'BX4A']"
100214,"WESTCHESTER AV/SIMPSON ST","40.823975","-73.893097","bronx","['BX4', 'BX4A']"
100216,"WESTCHESTER AV/HOE AV","40.825314","-73.890511","bronx","['BX27']"
100218,"WESTCHESTER AV/LONGFELLOW AV","40.826733","-73.887756","bronx","['BX27']"
100219,"WESTCHESTER AV/WHITLOCK AV","40.827496","-73.886276","bronx","['BX27', 'BX4', 'BX4A']"
100220,"WESTCHESTER AV/EVERGREEN AV","40.828373","-73.881172","bronx","['BX27']"
100221,"WESTCHESTER AV/ELDER AV","40.828514","-73.879318","bronx","['BX27', 'BX4', 'BX4A']"
100222,"WESTCHESTER AV/WARD AV","40.828674","-73.877464","bronx","['BX27']"
100223,"WESTCHESTER AV/MANOR AV","40.828957","-73.876236","bronx","['BX4', 'BX4A']"
100224,"WESTCHESTER AV/MORRISON AV","40.829338","-73.874763","bronx","['BX4', 'BX4A']"
100225,"WESTCHESTER AV/CROES AV","40.830433","-73.871124","bronx","['BX4', 'BX4A']"
100227,"WESTCHESTER AV/ST LAWRENCE AV","40.831402","-73.867516","bronx","['BX4', 'BX4A']"
100229,"WESTCHESTER AV/THIERIOT AV","40.832191","-73.864754","bronx","['BX4', 'BX4A']"
100230,"WESTCHESTER AV/WHITE PLAINS RD","40.832779","-73.862938","bronx","['BX4', 'BX4A']"
100232,"WESTCHESTER AV/PUGSLEY AV","40.833435","-73.857986","bronx","['BX4']"
100233,"WESTCHESTER AV/OLMSTEAD AV","40.833786","-73.854401","bronx","['BX4']"
100234,"WESTCHESTER AV/CASTLE HILL AV","40.834049","-73.851807","bronx","['BX4']"
100235,"WESTCHESTER AV/ZEREGA AV","40.836571","-73.84668","bronx","['BX4']"
100236,"WESTCHESTER AV/ST PETERS AV","40.838375","-73.844604","bronx","['BX4']"
100239,"WESTCHESTER AV/ST PETERS AV","40.838696","-73.844551","bronx","['BX4']"
100240,"WESTCHESTER AV/ZEREGA AV","40.836967","-73.846642","bronx","['BX4']"
100242,"WESTCHESTER AV/CASTLE HILL AV","40.834286","-73.851471","bronx","['BX4']"
100243,"WESTCHESTER AV/OLMSTEAD AV","40.834011","-73.854454","bronx","['BX4']"
100244,"WESTCHESTER AV/PUGSLEY AV","40.833633","-73.857597","bronx","['BX4']"
100245,"HUGH GRANT CIR/METROPOLITAN AV","40.833603","-73.861153","bronx","['BX4', 'BX4A']"
100246,"WESTCHESTER AV/WHITE PLAINS RD","40.833122","-73.862534","bronx","['BX4', 'BX4A']"
100247,"WESTCHESTER AV/THIERIOT AV","40.832481","-73.864456","bronx","['BX4', 'BX4A']"
100249,"WESTCHESTER AV/ST LAWRENCE AV","40.831741","-73.867065","bronx","['BX4', 'BX4A']"
100253,"WESTCHESTER AV/MORRISON AV","40.82962","-73.874496","bronx","['BX4', 'BX4A']"
100254,"WESTCHESTER AV/MANOR AV","40.82906","-73.876312","bronx","['BX27', 'BX4', 'BX4A']"
100255,"WESTCHESTER AV/BOYNTON AV","40.828732","-73.87812","bronx","['BX27']"
100256,"WESTCHESTER AV/ELDER AV","40.828651","-73.879059","bronx","['BX27', 'BX4', 'BX4A']"
100257,"WESTCHESTER AV/EVERGREEN AV","40.828491","-73.880936","bronx","['BX27']"
100258,"WESTCHESTER AV/BRONX RIVER AV","40.828358","-73.882736","bronx","['BX27']"
100259,"WESTCHESTER AV/HOME ST","40.827469","-73.886604","bronx","['BX27', 'BX4', 'BX4A']"
100260,"WESTCHESTER AV/HOE AV","40.825203","-73.891113","bronx","['BX4', 'BX4A']"
100261,"WESTCHESTER AV/SIMPSON ST","40.824326","-73.892776","bronx","['BX4', 'BX4A']"
100262,"WESTCHESTER AV/TIFFANY ST","40.823288","-73.894722","bronx","['BX4', 'BX4A']"
100264,"WESTCHESTER AV/E 163 ST","40.821251","-73.898827","bronx","['BX4', 'BX4A']"
100265,"WESTCHESTER AV/PROSPECT AV","40.819923","-73.901222","bronx","['BX4', 'BX4A']"
100266,"WESTCHESTER AV/UNION AV","40.818958","-73.903099","bronx","['BX4']"
100267,"WESTCHESTER AV/TINTON AV","40.818207","-73.9048","bronx","['BX4', 'BX4A']"
100268,"WESTCHESTER AV/JACKSON AV","40.816513","-73.907906","bronx","['BX4', 'BX4A']"
100270,"WESTCHESTER AV/ST ANNS AV","40.816074","-73.911728","bronx","['BX4', 'BX4A']"
100273,"SOUTHERN BL/WESTCHESTER AV","40.823673","-73.891945","bronx","['BX19', 'BX5']"
100275,"STORY AV/BRONX RIVER AV","40.821037","-73.881721","bronx","['BX5']"
100276,"STORY AV/COLGATE AV","40.821281","-73.87986","bronx","['BX5']"
100277,"STORY AV/ELDER AV","40.821564","-73.877731","bronx","['BX5']"
100278,"STORY AV/BOYNTON AV","40.821789","-73.87606","bronx","['BX5']"
100279,"STORY AV/MORRISON AV","40.822193","-73.8731","bronx","['BX5']"
100280,"STORY AV/METCALF AV","40.822548","-73.870529","bronx","['BX5']"
100281,"STORY AV/NOBLE AV","40.822842","-73.868301","bronx","['BX5']"
100282,"STORY AV/ROSEDALE AV","40.82309","-73.866508","bronx","['BX5']"
100283,"STORY AV/TAYLOR AV","40.823456","-73.86367","bronx","['BX5']"
100284,"STORY AV/THIERIOT AV","40.823673","-73.862106","bronx","['BX5']"
100294,"BRUCKNER BL/E TREMONT AV","40.83316","-73.827591","bronx","['Q50', 'BX5', 'BXM8']"
100295,"BRUCKNER BL/LOGAN AV","40.834137","-73.82563","bronx","['BX5']"
100296,"BRUCKNER BL/KEARNEY AV","40.839142","-73.824852","bronx","['Q50', 'BX5']"
100297,"BRUCKNER BL/CONNELL PL","40.841064","-73.825096","bronx","['BXM8', 'BX5']"
100298,"BRUCKNER BL/COUNTRY CLUB RD","40.842503","-73.825111","bronx","['Q50', 'BX5']"
100299,"BRUCKNER BL/MIDDLETOWN RD","40.845753","-73.825394","bronx","['BX24', 'BX5']"
100304,"PELHAM PKWY/EASTCHESTER RD","40.857883","-73.844162","bronx","['BX12+', 'BX12']"
100305,"PELHAM PKWY/SEYMOUR AV","40.858109","-73.846375","bronx","['BX12']"
100306,"PELHAM PKWY/THROOP AV","40.858028","-73.851524","bronx","['BX12']"
100317,"PELHAM PKWY/EASTCHESTER RD","40.857246","-73.843941","bronx","['BX12+', 'BX12']"
100318,"PELHAM PKWY/STILLWELL AV","40.856476","-73.838814","bronx","['BX12']"
100319,"PELHAM PKWY/ST PAUL AV","40.85545","-73.830666","bronx","['BX12']"
100322,"BRUCKNER BL/WILLOW LA","40.848919","-73.828094","bronx","['BX24', 'Q50', 'BX5']"
100323,"BRUCKNER BL/ROBERTS AV","40.846588","-73.826782","bronx","['BX24', 'BX5']"
100324,"BRUCKNER BL/MIDDLETOWN RD","40.844906","-73.826195","bronx","['BX24', 'BX5']"
100325,"BRUCKNER BL/JARVIS AV","40.843136","-73.826294","bronx","['BX24', 'Q50', 'BX5', 'BXM8']"
100326,"BRUCKNER BL/CODDINGTON AV","40.841438","-73.826172","bronx","['BX5']"
100328,"BRUCKNER BL/BAISLEY AV","40.837135","-73.82592","bronx","['Q50', 'BX5', 'BXM8']"
100329,"BRUCKNER BL/CROSBY AV","40.834499","-73.826157","bronx","['BX5']"
100330,"BRUCKNER BL/E TREMONT AV","40.832977","-73.829071","bronx","['BX5']"
100331,"BRUCKNER BL/GIFFORD AV","40.831306","-73.831726","bronx","['BX5']"
100337,"STORY AV/BOLTON AV","40.824165","-73.859673","bronx","['BX5']"
100338,"STORY AV/UNDERHILL AV","40.823967","-73.861145","bronx","['BX5']"
100339,"STORY AV/TAYLOR AV","40.823586","-73.864014","bronx","['BX5']"
100340,"STORY AV/ROSEDALE AV","40.823189","-73.86692","bronx","['BX5']"
100341,"STORY AV/SOUNDVIEW AV","40.822945","-73.86869","bronx","['BX5']"
100342,"STORY AV/FTELEY AV","40.822697","-73.870552","bronx","['BX5']"
100343,"STORY AV/MORRISON AV","40.822323","-73.873413","bronx","['BX5']"
100344,"STORY AV/BOYNTON AV","40.821793","-73.87719","bronx","['BX5']"
100347,"STORY AV/BRONX RIVER AV","40.821148","-73.882057","bronx","['BX5']"
100362,"E 161 ST/JEROME AV","40.829647","-73.929596","bronx","['BX13', 'BX6']"
100366,"E 161 ST/CONCOURSE VILLAGE E","40.825344","-73.918098","bronx","['BX13', 'BX6']"
100368,"E 161 ST/MELROSE AV","40.824173","-73.914017","bronx","['BX13', 'BX6']"
100369,"ELTON AV/E 161 ST","40.823719","-73.911705","bronx","['BX13', 'BX6']"
100370,"E 163 ST/3 AV","40.824066","-73.908928","bronx","['BX6']"
100373,"E 163 ST/TINTON AV","40.822517","-73.902748","bronx","['BX6']"
100374,"E 163 ST/PROSPECT AV","40.821892","-73.900192","bronx","['BX6']"
100376,"E 163 ST/WESTCHESTER AV","40.820908","-73.898499","bronx","['BX6']"
100377,"E 163 ST/INTERVALE AV","40.8209","-73.897079","bronx","['BX6']"
100379,"E 163 ST/FOX ST","40.820911","-73.892998","bronx","['BX6']"
100382,"HUNTS POINT AV/GARRISON AV","40.819275","-73.889687","bronx","['BX6']"
100383,"HUNTS POINT AV/GILBERT PL","40.817471","-73.888618","bronx","['BX6']"
100384,"HUNTS POINT AV/COSTER ST","40.816071","-73.887581","bronx","['BX6']"
100385,"SPOFFORD AV/BRYANT AV","40.814587","-73.885117","bronx","['BX6']"
100386,"SPOFFORD AV/HALLECK ST","40.815067","-73.881966","bronx","['BX6']"
100414,"SPOFFORD AV/HALLECK ST","40.815235","-73.882347","bronx","['BX6']"
100415,"HUNTS POINT AV/SPOFFORD AV","40.814907","-73.886063","bronx","['BX6']"
100416,"HUNTS POINT AV/FAILE ST","40.81596","-73.887154","bronx","['BX6']"
100417,"HUNTS POINT AV/LAFAYETTE AV","40.816994","-73.888054","bronx","['BX6']"
100419,"HUNTS POINT AV/SENECA AV","40.818939","-73.889221","bronx","['BX6']"
100421,"E 163 ST/SIMPSON ST","40.821068","-73.893265","bronx","['BX6']"
100423,"E 163 ST/INTERVALE AV","40.821095","-73.897354","bronx","['BX6']"
100424,"E 163 ST/WESTCHESTER AV","40.821106","-73.898453","bronx","['BX6']"
100425,"E 163 ST/PROSPECT AV","40.822315","-73.90107","bronx","['BX6']"
100426,"E 163 ST/UNION AV","40.822495","-73.902061","bronx","['BX6']"
100428,"E 163 ST/TRINITY AV","40.823544","-73.906235","bronx","['BX6']"
100431,"E 161 ST/MELROSE AV","40.824406","-73.914215","bronx","['BX13', 'BX6']"
100432,"E 161 ST/COURTLANDT AV","40.82489","-73.915817","bronx","['BX13']"
100433,"E 161 ST/PARK AV","40.825184","-73.916908","bronx","['BX13', 'BX6']"
100435,"E 161 ST/SHERMAN AV","40.82637","-73.920593","bronx","['BX13', 'BX6']"
100449,"BROADWAY/W 225 ST","40.874847","-73.909119","bronx","['BX20', 'BX7']"
100450,"BROADWAY/W 228 ST","40.875698","-73.908195","bronx","['BX9', 'BX20', 'BX7']"
100451,"BROADWAY/EXTERIOR ST","40.876503","-73.906631","bronx","['BX9', 'BX20', 'BX7']"
100459,"HENRY HUDSON PKY E/W 246 ST","40.893963","-73.907906","bronx","['BXM1', 'BXM18', 'BXM2', 'BX10', 'BX7']"
100460,"HENRY HUDSON PKY E/W 250 ST","40.897503","-73.907608","bronx","['BX10', 'BX7']"
100461,"HENRY HUDSON PKY E/W 252 ST","40.899136","-73.906776","bronx","['BXM1', 'BXM18', 'BXM2', 'BX10', 'BX7']"
100462,"RIVERDALE AV/W 254 ST","40.901966","-73.905785","bronx","['BXM1', 'BXM18', 'BXM2', 'BX10', 'BX7']"
100463,"RIVERDALE AV/W 256 ST","40.904308","-73.904839","bronx","['BXM1', 'BXM18', 'BXM2', 'BX10', 'BX7']"
100464,"RIVERDALE AV/W 259 ST","40.907139","-73.903908","bronx","['BXM1', 'BXM18', 'BXM2', 'BX10', 'BX7']"
100465,"RIVERDALE AV/W 260 ST","40.908718","-73.903473","bronx","['BX10', 'BX7']"
100466,"RIVERDALE AV/W 261 ST","40.910397","-73.90303","bronx","['BXM1', 'BXM18', 'BXM2', 'BX10', 'BX7']"
100469,"RIVERDALE AV/W 261 ST","40.910225","-73.903267","bronx","['BXM18', 'BX7', 'BXM1', 'BXM3', 'BXM2', 'BX10']"
100470,"RIVERDALE AV/W 260 ST","40.908489","-73.903786","bronx","['BX10', 'BX7']"
100471,"RIVERDALE AV/W 259 ST","40.906536","-73.904312","bronx","['BXM1', 'BXM18', 'BXM2', 'BX10', 'BX7']"
100472,"RIVERDALE AV/W 256 ST","40.903915","-73.905205","bronx","['BXM1', 'BXM18', 'BXM2', 'BX10', 'BX7']"
100473,"RIVERDALE AV/W 254 ST","40.901894","-73.906067","bronx","['BXM1', 'BXM18', 'BXM2', 'BX10', 'BX7']"
100474,"HENRY HUDSON PKY W/W 252 ST","40.898968","-73.907898","bronx","['BXM1', 'BXM18', 'BXM2', 'BX10', 'BX7']"
100475,"HENRY HUDSON PKY W/W 249 ST","40.896999","-73.908295","bronx","['BX10', 'BX7']"
100482,"KINGSBRIDGE AV/W 230 ST","40.87846","-73.907982","bronx","['BX20', 'BX7']"
100483,"W 230 ST/BROADWAY","40.876854","-73.906975","bronx","['BXM1', 'BXM18', 'BXM2', 'BX20', 'BX7']"
100484,"BROADWAY/W 228 ST","40.875774","-73.908279","bronx","['BX9', 'BX20', 'BX7']"
100485,"BROADWAY/W 225 ST","40.874386","-73.910225","bronx","['BX20', 'BX7']"
100492,"WILLIAMSBRIDGE RD/EASTCHESTER RD","40.84444","-73.846039","bronx","['BX8', 'BX31']"
100493,"WILLIAMSBRIDGE RD/PIERCE AV","40.847385","-73.849167","bronx","['BX8']"
100494,"WILLIAMSBRIDGE RD/MORRIS PK AV","40.850227","-73.851173","bronx","['BX8']"
100495,"WILLIAMSBRIDGE RD/RHINELANDER AV","40.852589","-73.85302","bronx","['BX8']"
100496,"WILLIAMSBRIDGE RD/NEILL AV","40.85453","-73.85453","bronx","['BX8']"
100499,"WILLIAMSBRIDGE RD/ASTOR AV","40.859581","-73.857224","bronx","['BX8']"
100500,"WILLIAMSBRIDGE RD/MACE AV","40.862923","-73.857887","bronx","['BX8']"
100501,"WILLIAMSBRIDGE RD/ALLERTON AV","40.86536","-73.859421","bronx","['BX8']"
100502,"WILLIAMSBRIDGE RD/BOSTON RD","40.867062","-73.860947","bronx","['BX8']"
100503,"BRONXWOOD AV/ARNOW AV","40.868126","-73.861359","bronx","['BX8']"
100504,"BRONXWOOD AV/ADEE AV","40.869469","-73.861313","bronx","['BX8']"
100505,"BRONXWOOD AV/BURKE AV","40.871681","-73.861252","bronx","['BX8']"
100506,"BRONXWOOD AV/DUNCAN ST","40.873432","-73.861183","bronx","['BX8']"
100508,"BRONXWOOD AV/TILDEN ST","40.876747","-73.85968","bronx","['BX8']"
100509,"BRONXWOOD AV/E 214 ST","40.87862","-73.85865","bronx","['BX8']"
100510,"BRONXWOOD AV/E 216 ST","40.879906","-73.857941","bronx","['BX8']"
100511,"BRONXWOOD AV/E 218 ST","40.881302","-73.85717","bronx","['BX8']"
100512,"BRONXWOOD AV/E 220 ST","40.882698","-73.8564","bronx","['BX8']"
100513,"BRONXWOOD AV/E 222 ST","40.884151","-73.855598","bronx","['BX8']"
100514,"BRONXWOOD AV/E 224 ST","40.885506","-73.854843","bronx","['BX8']"
100515,"E 226 ST/BRONXWOOD AV","40.886864","-73.854721","bronx","['BX8']"
100516,"E 226 ST/BARNES AV","40.887764","-73.857552","bronx","['BX8']"
100517,"E 226 ST/WHITE PLAINS RD","40.888496","-73.859879","bronx","['BX8']"
100522,"BRONXWOOD AV/E 222 ST","40.88356","-73.856194","bronx","['BX8']"
100523,"BRONXWOOD AV/E 220 ST","40.882191","-73.856941","bronx","['BX8']"
100524,"BRONXWOOD AV/E 218 ST","40.880775","-73.857727","bronx","['BX8']"
100525,"BRONXWOOD AV/E 216 ST","40.879372","-73.858505","bronx","['BX8']"
100526,"BRONXWOOD AV/E 214 ST","40.878098","-73.8592","bronx","['BX8']"
100527,"BRONXWOOD AV/TILDEN ST","40.876534","-73.860077","bronx","['BX8']"
100528,"BRONXWOOD AV/E GUN HILL RD","40.87566","-73.86055","bronx","['BX8']"
100529,"BRONXWOOD AV/BARTHOLDI ST","40.873344","-73.86145","bronx","['BX8']"
100530,"BRONXWOOD AV/BURKE AV","40.870987","-73.861511","bronx","['BX8']"
100531,"BRONXWOOD AV/ADEE AV","40.869255","-73.861565","bronx","['BX8']"
100532,"BRONXWOOD AV/ARNOW AV","40.867935","-73.86161","bronx","['BX8']"
100533,"WILLIAMSBRIDGE RD/BOSTON RD","40.866779","-73.860947","bronx","['BX8']"
100534,"WILLIAMSBRIDGE RD/ALLERTON AV","40.865654","-73.85994","bronx","['BX8']"
100535,"WILLIAMSBRIDGE RD/MACE AV","40.862717","-73.858017","bronx","['BX8']"
100536,"WILLIAMSBRIDGE RD/ASTOR AV","40.859371","-73.857414","bronx","['BX8']"
100537,"WILLIAMSBRIDGE RD/PELHAM PY N","40.85767","-73.856514","bronx","['BX8']"
100538,"WILLIAMSBRIDGE RD/PELHAM PY S","40.856632","-73.856087","bronx","['BX8']"
100539,"WILLIAMSBRIDGE RD/NEILL AV","40.853859","-73.854286","bronx","['BX8']"
100540,"WILLIAMSBRIDGE RD/RHINELANDER AV","40.852119","-73.852913","bronx","['BX8']"
100541,"WILLIAMSBRIDGE RD/MORRIS PK AV","40.850349","-73.851501","bronx","['BX8']"
100542,"WILLIAMSBRIDGE RD/PIERCE AV","40.846909","-73.84906","bronx","['BX8']"
100543,"WILLIAMSBRIDGE RD/SILVER ST","40.844078","-73.845993","bronx","['BX8', 'BX31']"
100558,"E 180 ST/BOSTON RD","40.842899","-73.878525","bronx","['BX9', 'BX36']"
100559,"E 180 ST/DALY AV","40.844776","-73.881783","bronx","['BX9', 'BX36']"
100560,"E 180 ST/CROTONA PY","40.845821","-73.883965","bronx","['BX9', 'BX36']"
100561,"SOUTHERN BL/BRONX PK S","40.847687","-73.883125","bronx","['BX9', 'BX19']"
100562,"SOUTHERN BL/E 183 ST","40.851177","-73.882172","bronx","['BX9', 'BX19']"
100563,"SOUTHERN BL/E 187 ST","40.853214","-73.881577","bronx","['BX9', 'BX19']"
100564,"SOUTHERN BL/E 189 ST","40.856407","-73.880684","bronx","['BX9', 'BX19']"
100565,"E FORDHAM RD/CAMBERLENG AV","40.858135","-73.882988","bronx","['BX9', 'BX17', 'BX22', 'BX12']"
100567,"E FORDHAM RD/BATHGATE AV","40.859852","-73.88765","bronx","['BX9', 'BX17', 'BX22', 'BX12']"
100571,"E KINGSBRIDGE RD/E 192 ST","40.863823","-73.894196","bronx","['BX9', 'BX22']"
100573,"E KINGSBRIDGE RD/MORRIS AV","40.867023","-73.896126","bronx","['BX9', 'BX28', 'BX22', 'BX38']"
100576,"W KINGSBRIDGE RD/KINGSBRIDGE TER","40.870346","-73.904243","bronx","['BX9']"
100579,"W 225 ST/BROADWAY","40.874485","-73.909401","bronx","['BX9']"
100582,"BROADWAY/W 231 ST","40.878769","-73.904762","bronx","['BX9']"
100583,"BROADWAY/W 234 ST","40.881535","-73.902794","bronx","['BX9']"
100585,"BROADWAY/W 238 ST","40.884968","-73.900635","bronx","['BX9']"
100586,"BROADWAY/VAN CORTLANDT PK S","40.886375","-73.899712","bronx","['BX9']"
100587,"BROADWAY/W 242 ST","40.889763","-73.897934","bronx","['BX9']"
100588,"BROADWAY/W 246 ST","40.892052","-73.896965","bronx","['BX9', 'BXM3']"
100589,"BROADWAY/W 251 ST","40.895702","-73.896553","bronx","['BX9', 'BXM3']"
100590,"BROADWAY/LAKE VIEW PL","40.898499","-73.896942","bronx","['BX9', 'BXM3']"
100591,"BROADWAY/W 254 ST","40.901356","-73.896667","bronx","['BX9', 'BXM3']"
100592,"BROADWAY/W 256 ST","40.902828","-73.896301","bronx","['BX9', 'BXM3']"
100594,"BROADWAY/W 260 ST","40.907417","-73.896408","bronx","['BX9', 'BXM3']"
100595,"BROADWAY/W 262 ST","40.91008","-73.896492","bronx","['BX9', 'BXM3']"
100606,"RIVERDALE AV/W 263 ST","40.912376","-73.902534","bronx","['BX10', 'BX7']"
100607,"RIVERDALE AV/W 263 ST","40.912365","-73.902702","bronx","['BX10', 'BX7']"
100608,"BROADWAY/W 262 ST","40.910107","-73.896729","bronx","['BX9']"
100609,"BROADWAY/W 260 ST","40.907177","-73.896667","bronx","['BX9', 'BXM3']"
100610,"BROADWAY/MOSHOLU AV","40.904243","-73.896538","bronx","['BX9', 'BXM3']"
100612,"BROADWAY/W 254 ST","40.901131","-73.897003","bronx","['BX9', 'BXM3']"
100613,"BROADWAY/LAKE VIEW PL","40.898666","-73.89724","bronx","['BX9', 'BXM3']"
100614,"BROADWAY/W 251 ST","40.895878","-73.896858","bronx","['BX9', 'BXM3']"
100615,"BROADWAY/W 246 ST","40.892239","-73.897156","bronx","['BX9', 'BXM3']"
100616,"BROADWAY/W 242 ST","40.890057","-73.8983","bronx","['BX9']"
100617,"BROADWAY/W 240 ST","40.886688","-73.899918","bronx","['BX9']"
100618,"BROADWAY/W 238 ST","40.885242","-73.900665","bronx","['BX9']"
100619,"BROADWAY/W 236 ST","40.883606","-73.901588","bronx","['BX9']"
100620,"BROADWAY/W 234 ST","40.881798","-73.902824","bronx","['BX9']"
100621,"BROADWAY/W 231 ST","40.879059","-73.90477","bronx","['BX9']"
100622,"BROADWAY/W 230 ST","40.876915","-73.906433","bronx","['BX9']"
100624,"W 225 ST/BROADWAY","40.874275","-73.909378","bronx","['BX9']"
100626,"W KINGSBRIDGE RD/HEATH AV","40.872593","-73.904831","bronx","['BX9']"
100627,"W KINGSBRIDGE RD/KINGSBRIDGE TER","40.870419","-73.904579","bronx","['BX9']"
100629,"W KINGSBRIDGE RD/UNIVERSITY AV","40.868263","-73.90123","bronx","['BX9', 'BX3', 'BX32']"
100630,"W KINGSBRIDGE RD/JEROME AV","40.867432","-73.897667","bronx","['BX22']"
100631,"E KINGSBRIDGE RD/GRAND CONCOURSE","40.865799","-73.894226","bronx","['BX9', 'BX28', 'BX22', 'BX38']"
100632,"E KINGSBRIDGE RD/E192 ST","40.863724","-73.894363","bronx","['BX9']"
100633,"E KINGSBRIDGE RD/E FORDHAM RD","40.862087","-73.893936","bronx","['BX9']"
100636,"E FORDHAM RD/BATHGATE AV","40.8596","-73.887657","bronx","['BX9', 'BX17', 'BX22', 'BX12']"
100640,"SOUTHERN BL/E FORDHAM RD","40.856251","-73.880974","bronx","['BX9', 'BX19']"
100641,"SOUTHERN BL/E 187 ST","40.853172","-73.881851","bronx","['BX9', 'BX19']"
100642,"SOUTHERN BL/E 183 ST","40.850918","-73.882492","bronx","['BX9', 'BX19']"
100643,"SOUTHERN BL/E 182 ST","40.847977","-73.883339","bronx","['BX9', 'BX19']"
100644,"E 180 ST/CROTONA PY","40.845673","-73.883987","bronx","['BX9', 'BX36']"
100645,"E 180 ST/DALY AV","40.844402","-73.881554","bronx","['BX9', 'BX36']"
100646,"BOSTON RD/E 180 ST","40.84256","-73.878334","bronx","['BX9', 'BX36', 'Q44']"
100646,"BOSTON RD/E 180 ST","40.84256","-73.878334","queens","['BX9', 'BX36', 'Q44']"
100647,"BOSTON RD/E 178 ST","40.840641","-73.879807","bronx","['BX9']"
100652,"BAINBRIDGE AV/RESERVOIR OVAL E","40.877285","-73.879623","bronx","['BX28', 'BX38', 'BX34', 'BX30', 'BX16', 'BX10']"
100654,"E GUN HILL RD/BAINBRIDGE AV","40.881348","-73.87883","bronx","['BX10']"
100655,"E GUN HILL RD/DE KALB AV","40.882484","-73.880699","bronx","['BX10']"
100657,"JEROME AV/E 205 ST","40.876461","-73.888115","bronx","['BX10']"
100675,"KAPPOCK ST/JOHNSON AV","40.877567","-73.91774","bronx","['BXM1', 'BXM18', 'BXM2', 'BX20', 'BX10']"
100676,"KAPPOCK ST/KNOLLS CRES","40.879475","-73.916641","bronx","['BXM1', 'BXM18', 'BXM2', 'BX20', 'BX10']"
100677,"HENRY HUDSON PKY E/W 227 ST","40.88118","-73.917091","bronx","['BXM1', 'BXM18', 'BXM2', 'BX20', 'BX10']"
100678,"HENRY HUDSON PKY E/W 232 ST","40.884434","-73.914566","bronx","['BXM1', 'BXM18', 'BXM2', 'BX20', 'BX10']"
100679,"HENRY HUDSON PKY E/W 235 ST","40.886028","-73.912567","bronx","['BXM1', 'BXM18', 'BXM2', 'BX20', 'BX10']"
100680,"HENRY HUDSON PKY E/W 238 ST","40.888557","-73.9095","bronx","['BX20', 'BX10']"
100700,"HENRY HUDSON PKY W/W 239 ST","40.889606","-73.909012","bronx","['BXM1', 'BXM18', 'BXM2', 'BX20', 'BX10']"
100701,"HENRY HUDSON PKY W/W 237 ST","40.887848","-73.911919","bronx","['BX20', 'BX10']"
100702,"HENRY HUDSON PKY W/W 236 ST","40.886799","-73.912537","bronx","['BXM1', 'BXM18', 'BXM2', 'BX20', 'BX10']"
100703,"HENRY HUDSON PKY W/W 232 ST","40.884346","-73.915207","bronx","['BXM1', 'BXM18', 'BXM2', 'BX20', 'BX10']"
100704,"HENRY HUDSON PKY W/W 227 ST","40.881569","-73.917343","bronx","['BXM1', 'BXM18', 'BXM2', 'BX20', 'BX10']"
100705,"HENRY HUDSON PKY W/INDEPENDENCE AV","40.880806","-73.918953","bronx","['BXM1', 'BXM18', 'BXM2', 'BX20', 'BX10']"
100706,"KAPPOCK ST/KNOLLS CRES","40.879089","-73.916786","bronx","['BXM1', 'BXM18', 'BXM2', 'BX20', 'BX10']"
100707,"KAPPOCK ST/JOHNSON AV","40.877396","-73.918015","bronx","['BXM1', 'BXM18', 'BXM2', 'BX20', 'BX10']"
100723,"W 205 ST/PAUL AV","40.876999","-73.889854","bronx","['BX26', 'BX22']"
100726,"JEROME AV/E 205 ST","40.875729","-73.88826","bronx","['BX10']"
100727,"JEROME AV/E MOSHOLU PY N","40.879787","-73.884392","bronx","['BX10']"
100729,"BAINBRIDGE AV/E GUN HILL RD","40.88073","-73.878716","bronx","['BX28', 'BX38', 'BX34', 'BX30', 'BX16', 'BX10']"
100730,"BAINBRIDGE AV/E 210 ST","40.879345","-73.879173","bronx","['BX28', 'BX38', 'BX34', 'BX30', 'BX16', 'BXM4', 'BX10']"
100731,"BAINBRIDGE AV/VAN CORTLANDT AV E","40.877068","-73.879944","bronx","['BX28', 'BX38', 'BX34', 'BX30', 'BX16', 'BXM4', 'BX10']"
100737,"OGDEN AV/UNIVERSITY AV","40.843613","-73.923775","bronx","['BX11', 'BX13']"
100738,"OGDEN AV/W 171 ST","40.842209","-73.924408","bronx","['BX11', 'BX13']"
100740,"OGDEN AV/W 169 ST","40.840248","-73.925346","bronx","['BX11', 'BX13']"
100741,"W 168 ST/NELSON AV","40.838257","-73.924576","bronx","['BX11']"
100742,"WOODYCREST AV/W 168 ST","40.838421","-73.923294","bronx","['BX11']"
100743,"SHAKESPEARE AV/W 169 ST","40.839535","-73.922455","bronx","['BX11']"
100744,"W 170 ST/EDWARD L GRANT HY","40.840107","-73.921059","bronx","['BX11']"
100745,"W 170 ST/JEROME AV","40.84021","-73.917816","bronx","['BX11', 'BX18']"
100748,"E 170 ST/FINDLAY AV","40.837128","-73.909821","bronx","['BX11']"
100749,"E 170 ST/CLAY AV","40.837063","-73.908218","bronx","['BX11']"
100750,"CLAY AV/E 171 ST","40.838631","-73.906395","bronx","['BX11']"
100751,"CLAREMONT PKY/WEBSTER AV","40.839508","-73.904976","bronx","['BX11']"
100752,"CLAREMONT PKY/WASHINGTON AV","40.838615","-73.902321","bronx","['BX11']"
100753,"CLAREMONT PKY/3 AV","40.837936","-73.900841","bronx","['BX11']"
100754,"CLAREMONT PKY/CROTONA AV","40.836376","-73.897964","bronx","['BX11']"
100755,"CLAREMONT PKY/BOSTON RD","40.834927","-73.894341","bronx","['BX11']"
100761,"LOUIS NINE BL/BOSTON RD","40.834923","-73.893883","bronx","['BX11']"
100762,"CLAREMONT PKY/CROTONA PARK E","40.835438","-73.894974","bronx","['BX11']"
100763,"CLAREMONT PKY/CROTONA AV","40.836613","-73.897575","bronx","['BX11']"
100764,"CLAREMONT PKY/3 AV","40.838451","-73.901505","bronx","['BX11']"
100765,"CLAREMONT PKY/WASHINGTON AV","40.839092","-73.902992","bronx","['BX11']"
100766,"CLAREMONT PKY/WEBSTER AV","40.839794","-73.905144","bronx","['BX11']"
100768,"E 170 ST/TELLER AV","40.837051","-73.909126","bronx","['BX11']"
100769,"E 170 ST/COLLEGE AV","40.837761","-73.91095","bronx","['BX11']"
100771,"E 170 ST/WALTON AV","40.839764","-73.91626","bronx","['BX11', 'BX18']"
100772,"E 170 ST/JEROME AV","40.840229","-73.91748","bronx","['BX11']"
100773,"W 170 ST/EDWARD L. GRANT HY","40.840324","-73.921135","bronx","['BX11']"
100775,"SHAKESPEARE AV/W 169 ST","40.839024","-73.922798","bronx","['BX11']"
100776,"W 168 ST/NELSON AV","40.838448","-73.925323","bronx","['BX11']"
100779,"PLIMPTON AV/EDWARD L. GRANT HY","40.842407","-73.922981","bronx","['BX11', 'BX13']"
100780,"EDWARD L GRANT HY/UNIVERSITY AV","40.844189","-73.922821","bronx","['BX35', 'BX11', 'BX13']"
100796,"W FORDHAM RD/UNIVERSITY AV","40.862705","-73.904259","bronx","['BX12+', 'BX12']"
100797,"E FORDHAM RD/WALTON AV","40.862453","-73.900497","bronx","['BX12+']"
100798,"E FORDHAM RD/GRAND CONCOURSE","40.862328","-73.897598","bronx","['BX12']"
100799,"E FORDHAM RD/VALENTINE AV","40.862225","-73.896065","bronx","['BX12+', 'BX12']"
100807,"E FORDHAM RD/SOUTHERN BL","40.856464","-73.88015","bronx","['BX12+', 'BX22', 'BX12']"
100808,"PELHAM PKWY/WHITE PLAINS RD","40.856716","-73.867836","bronx","['BX12']"
100809,"PELHAM PKWY/MULINER AV","40.85688","-73.861763","bronx","['BX12']"
100810,"PELHAM PKWY/HONE AV","40.856922","-73.860138","bronx","['BX12']"
100811,"PELHAM PKWY/WILLIAMSBRIDGE RD","40.857021","-73.856346","bronx","['BX12+', 'BX12']"
100820,"CITY ISLAND AV/KILROE ST","40.854568","-73.791","bronx","['BX29']"
100821,"CITY ISLAND AV/CROSS ST","40.853241","-73.790062","bronx","['BXM8', 'BX29']"
100822,"CITY ISLAND AV/BEACH ST","40.85173","-73.788986","bronx","['BX29']"
100823,"CITY ISLAND AV/DITMARS ST","40.849464","-73.787399","bronx","['BXM8', 'BX29']"
100824,"CITY ISLAND AV/FORDHAM ST","40.846916","-73.786476","bronx","['BXM8', 'BX29']"
100825,"CITY ISLAND AV/SCHOFIELD ST","40.844818","-73.78569","bronx","['BX29']"
100826,"CITY ISLAND AV/WINTERS ST","40.843819","-73.785316","bronx","['BXM8', 'BX29']"
100827,"CITY ISLAND AV/PELL PL","40.842178","-73.784698","bronx","['BX29']"
100828,"CITY ISLAND AV/PILOT ST","40.841278","-73.78437","bronx","['BXM8', 'BX29']"
100829,"CITY ISLAND AV/ROCHELLE ST","40.83897","-73.783485","bronx","['BXM8', 'BX29']"
100840,"PELHAM PKWY/WILLIAMSBRIDGE RD","40.857582","-73.85701","bronx","['BX12+', 'BX12']"
100842,"PELHAM PKWY/WHITE PLAINS RD","40.857323","-73.867416","bronx","['BX12']"
100843,"E FORDHAM RD/SOUTHERN BL","40.857311","-73.880493","bronx","['BX12+', 'BX22', 'BX12']"
100849,"E FORDHAM RD/VALENTINE AV","40.862434","-73.895988","bronx","['BX12+']"
100850,"E FORDHAM RD/E 190 ST","40.862484","-73.897873","bronx","['BX12']"
100851,"E FORDHAM RD/JEROME AV","40.862755","-73.900764","bronx","['BX12']"
100854,"W FORDHAM RD/SEDGWICK AV","40.862839","-73.908455","bronx","['BX12+', 'BX12']"
100860,"CITY ISLAND AV/ROCHELLE ST","40.839062","-73.783363","bronx","['BX29']"
100861,"CITY ISLAND AV/PILOT ST","40.841152","-73.784111","bronx","['BXM8', 'BX29']"
100862,"CITY ISLAND AV/PELL PL","40.842846","-73.784744","bronx","['BX29']"
100863,"CITY ISLAND AV/WINTERS ST","40.844082","-73.785194","bronx","['BXM8', 'BX29']"
100864,"CITY ISLAND AV/SCHOFIELD ST","40.845448","-73.785713","bronx","['BX29']"
100865,"CITY ISLAND AV/FORDHAM ST","40.84753","-73.786491","bronx","['BXM8', 'BX29']"
100866,"CITY ISLAND AV/DITMARS ST","40.84964","-73.787285","bronx","['BXM8', 'BX29']"
100867,"CITY ISLAND AV/BEACH ST","40.852272","-73.789139","bronx","['BX29']"
100868,"CITY ISLAND AV/CROSS ST","40.853374","-73.78997","bronx","['BXM8', 'BX29']"
100869,"CITY ISLAND AV/KILROE ST","40.8545","-73.790718","bronx","['BX29']"
100870,"CITY ISLAND RD/ORCHARD BEACH CIR","40.860565","-73.801308","bronx","['BX29']"
100876,"ELTON AV/E 161 ST","40.823757","-73.911987","bronx","['BX13', 'BX6']"
100883,"JEROME AV/W 161 ST","40.829983","-73.930191","bronx","['BX13']"
100884,"OGDEN AV/W 162 ST","40.831913","-73.929871","bronx","['BX13']"
100893,"OGDEN AV/W 164 ST","40.833176","-73.929153","bronx","['BX13']"
100894,"OGDEN AV/W 165 ST","40.834667","-73.928307","bronx","['BX13']"
100895,"OGDEN AV/W 166 ST","40.835861","-73.927635","bronx","['BX13']"
100896,"OGDEN AV/W 167 ST","40.837395","-73.926758","bronx","['BX13']"
100897,"OGDEN AV/W 168 ST","40.838787","-73.925934","bronx","['BX13']"
100922,"OGDEN AV/W 168 ST","40.838215","-73.926453","bronx","['BX13']"
100923,"OGDEN AV/W 167 ST","40.836498","-73.927475","bronx","['BX13']"
100924,"OGDEN AV/W 166 ST","40.835331","-73.928139","bronx","['BX13']"
100925,"OGDEN AV/W 165 ST","40.834183","-73.928764","bronx","['BX13']"
100926,"OGDEN AV/W 164 ST","40.832642","-73.929626","bronx","['BX13']"
100927,"OGDEN AV/W 162 ST","40.831734","-73.930145","bronx","['BX13']"
100946,"WESTCHESTER AV/MIDDLETOWN RD","40.843758","-73.836357","bronx","['BX24', 'BX8']"
100947,"WESTCHESTER AV/ROBERTS AV","40.845448","-73.834206","bronx","['BX24', 'BX8']"
100948,"WESTCHESTER AV/CROSBY AV","40.846916","-73.832336","bronx","['BX24']"
100949,"WESTCHESTER AV/MAHAN AV","40.849026","-73.830544","bronx","['BX24']"
100950,"WESTCHESTER AV/WILKINSON AV","40.851707","-73.829536","bronx","['BX24']"
100956,"COUNTRY CLUB RD/KEARNEY AV","40.842491","-73.824753","bronx","['BX24']"
100960,"CAMPBELL DR/STADIUM AV","40.83791","-73.81884","bronx","['BX24']"
100961,"CAMPBELL DR/AGAR PL","40.83913","-73.817276","bronx","['BX24']"
100962,"CAMPBELL DR/COUNTRY CLUB RD","40.841064","-73.817856","bronx","['BX24']"
100963,"COUNTRY CLUB RD/REED PL","40.841061","-73.819069","bronx","['BX24']"
100965,"RADIO DR/LUCERNE ST","40.843132","-73.817146","bronx","['BX24']"
100966,"RADIO DR/GRISWOLD AV","40.843952","-73.819374","bronx","['BX24']"
100973,"SPENCER DR/STADIUM AV","40.842525","-73.820572","bronx","['BX24']"
100974,"COUNTRY CLUB RD/LOHENGRIN PL","40.840847","-73.821182","bronx","['BX24']"
100977,"COUNTRY CLUB RD/MC DONOUGH PL","40.842747","-73.825073","bronx","['BX24']"
100981,"WESTCHESTER AV/WILKINSON AV","40.851299","-73.829948","bronx","['BX24']"
100982,"WESTCHESTER AV/ST THERESA AV","40.849331","-73.830544","bronx","['BX24']"
100983,"WESTCHESTER AV/BUHRE AV","40.847134","-73.832306","bronx","['BX24']"
100984,"WESTCHESTER AV/ROBERTS AV","40.845581","-73.834221","bronx","['BX24', 'BX8']"
100985,"WESTCHESTER AV/HUTCHINSON RIVER PKWY E","40.843838","-73.836426","bronx","['BX24', 'BX8']"
101014,"WILLIS AV/E 138 ST","40.808929","-73.922852","bronx","['BX15']"
101015,"WILLIS AV/E 140 ST","40.810635","-73.921631","bronx","['BX15']"
101016,"WILLIS AV/E 142 ST","40.811874","-73.920731","bronx","['BX15']"
101017,"WILLIS AV/E 144 ST","40.81311","-73.919823","bronx","['BX15']"
101018,"WILLIS AV/E 146 ST","40.814358","-73.918915","bronx","['BX15']"
101020,"3 AV/E 152 ST","40.817711","-73.915253","bronx","['BX15', 'BX21']"
101021,"3 AV/E 153 ST","40.81871","-73.914146","bronx","['BX15', 'BX21']"
101023,"3 AV/E 158 ST","40.821732","-73.911888","bronx","['BX15', 'BX21']"
101027,"3 AV/E 166 ST","40.828594","-73.906799","bronx","['BX15']"
101028,"3 AV/E 168 ST","40.831329","-73.905594","bronx","['BX15']"
101029,"3 AV/E 169 ST","40.833076","-73.904686","bronx","['BX15']"
101030,"3 AV/ST PAULS PL","40.83622","-73.902565","bronx","['BX15']"
101031,"3 AV/CLAREMONT PY","40.838413","-73.900932","bronx","['BX15']"
101032,"3 AV/E 172 ST","40.83992","-73.899803","bronx","['BX15']"
101034,"3 AV/E 175 ST","40.844463","-73.897163","bronx","['BX15']"
101036,"3 AV/E 180 ST","40.850937","-73.89373","bronx","['BX15']"
101038,"3 AV/E 187 ST","40.857204","-73.890991","bronx","['BX15']"
101047,"3 AV/E 183 ST","40.853909","-73.89122","bronx","['BX15']"
101051,"3 AV/CROSS BRONX EP","40.843246","-73.898018","bronx","['BX15']"
101052,"3 AV/E 174 ST","40.842079","-73.898605","bronx","['BX15']"
101053,"3 AV/E 172 ST","40.839424","-73.900414","bronx","['BX15']"
101055,"3 AV/ST PAULS PL","40.835686","-73.903191","bronx","['BX15']"
101057,"3 AV/E 168 ST","40.830769","-73.90609","bronx","['BX15']"
101058,"3 AV/E 166 ST","40.827511","-73.907448","bronx","['BX15']"
101059,"3 AV/E 163 ST","40.823868","-73.908943","bronx","['BX15', 'BX21']"
101060,"3 AV/E 161 ST","40.822647","-73.909882","bronx","['BX15', 'BX21']"
101061,"3 AV/E 158 ST","40.821236","-73.912453","bronx","['BX15', 'BX21']"
101062,"3 AV/E 156 ST","40.819904","-73.913353","bronx","['BX15', 'BX21']"
101063,"3 AV/E 154 ST","40.818703","-73.914398","bronx","['BX15', 'BX21']"
101066,"3 AV/E 150 ST","40.816498","-73.917015","bronx","['BX15', 'BX21']"
101067,"WILLIS AV/E 148 ST","40.815159","-73.918594","bronx","['BX15']"
101068,"WILLIS AV/E 146 ST","40.813911","-73.919502","bronx","['BX15']"
101069,"WILLIS AV/E 144 ST","40.81271","-73.920403","bronx","['BX15']"
101070,"WILLIS AV/E 142 ST","40.81176","-73.921104","bronx","['BX15']"
101071,"WILLIS AV/E 141 ST","40.810837","-73.921776","bronx","['BX15']"
101072,"WILLIS AV/E 138 ST","40.809254","-73.922905","bronx","['BX15']"
101074,"E 138 ST/3 AV","40.810944","-73.926956","bronx","['BX15', 'BX33']"
101137,"BAINBRIDGE AV/E 212 ST","40.883781","-73.877579","bronx","['BX34', 'BX16', 'BXM4']"
101138,"BAINBRIDGE AV/JEROME AV","40.886787","-73.877754","bronx","['BX34', 'BX16', 'BXM4']"
101139,"E 233 ST/VAN CORTLANDT PK E","40.895439","-73.877052","bronx","['BX34', 'BX16']"
101140,"E 233 ST/NAPIER AV","40.895641","-73.874893","bronx","['BX34', 'BX16', 'BXM4']"
101141,"E 233 ST/ONEIDA AV","40.896149","-73.872505","bronx","['BX34', 'BX16']"
101142,"E 233 ST/KEPLER AV","40.896549","-73.87059","bronx","['BX34', 'BX16', 'BXM4']"
101146,"WEBSTER AV/NEREID AV","40.900898","-73.861511","bronx","['BX16']"
101147,"NEREID AV/CARPENTER AV","40.899353","-73.856865","bronx","['BX16']"
101148,"NEREID AV/WHITE PLAINS RD","40.898441","-73.854553","bronx","['BX16']"
101149,"NEREID AV/BYRON AV","40.897758","-73.852783","bronx","['BX16', 'BX39']"
101150,"NEREID AV/BRUNER AV","40.898476","-73.849274","bronx","['BX16', 'BX39']"
101152,"BAYCHESTER AV/PITMAN AV","40.896328","-73.845093","bronx","['BX16']"
101153,"BAYCHESTER AV/EDENWALD AV","40.892963","-73.843803","bronx","['BX16']"
101154,"E 233 ST/BAYCHESTER AV","40.888401","-73.841438","bronx","['BX16']"
101155,"E 233 ST/MURDOCK AV","40.888561","-73.838737","bronx","['BX16']"
101156,"E 233 ST/SETON AV","40.888943","-73.835991","bronx","['BX16']"
101157,"E 233 ST/SECOR AV","40.889133","-73.831802","bronx","['BX16']"
101158,"DYRE AV/LIGHT ST","40.88789","-73.831421","bronx","['BX16']"
101159,"DYRE AV/BOSTON RD","40.884827","-73.83149","bronx","['BX16']"
101160,"BOSTON RD/CONNER ST","40.885811","-73.828094","bronx","['BX16', 'BX30']"
101161,"MC OWEN AV/BOSTON RD","40.889271","-73.82032","bronx","['BX16']"
101162,"HOLLERS AV/ROPES AV","40.888054","-73.817917","bronx","['BX16']"
101163,"ROPES AV/BOSTON RD","40.889843","-73.819519","bronx","['BX16']"
101164,"NEREID AV/MURDOCK AV","40.899849","-73.843033","bronx","['BX16']"
101165,"NEREID AV/MUNDY LA","40.900482","-73.840126","bronx","['BX16']"
101166,"MUNDY LA/PITMAN AV","40.897984","-73.839676","bronx","['BX16']"
101167,"ROPES AV/BOSTON RD","40.889969","-73.819649","bronx","['BX16']"
101169,"DYRE AV/BOSTON RD","40.885071","-73.831238","bronx","['BX16']"
101170,"DYRE AV/LIGHT ST","40.888241","-73.831215","bronx","['BX16']"
101171,"E 233 ST/DYRE AV","40.889301","-73.831718","bronx","['BX16']"
101172,"E 233 ST/HARPER AV","40.889408","-73.833527","bronx","['BX16']"
101173,"E 233 ST/SETON AV","40.888927","-73.836884","bronx","['BX16']"
101174,"E 233 ST/MURDOCK AV","40.888821","-73.839691","bronx","['BX16']"
101176,"BAYCHESTER AV/EDENWALD AV","40.893238","-73.843666","bronx","['BX16']"
101177,"BAYCHESTER AV/PITMAN AV","40.896568","-73.844948","bronx","['BX16']"
101178,"SANFORD BL/S 11 AV","40.897938","-73.839096","bronx","['BX16']"
101179,"NEREID AV/SETON AV","40.900444","-73.84095","bronx","['BX16']"
101180,"NEREID AV/MURDOCK AV","40.89986","-73.843674","bronx","['BX16']"
101181,"NEREID AV/BAYCHESTER AV","40.899208","-73.846573","bronx","['BX16']"
101182,"NEREID AV/BRUNER AV","40.898445","-73.850029","bronx","['BX16']"
101183,"NEREID AV/BYRON AV","40.897926","-73.852394","bronx","['BX16']"
101184,"NEREID AV/WHITE PLAINS RD","40.898457","-73.854088","bronx","['BX16']"
101185,"NEREID AV/CARPENTER AV","40.899727","-73.857315","bronx","['BX16']"
101186,"WEBSTER AV/E 240 ST","40.900753","-73.861801","bronx","['BX16']"
101187,"WEBSTER AV/E 235 ST","40.897766","-73.86264","bronx","['BX16']"
101188,"WEBSTER AV/E 233 ST","40.895554","-73.863602","bronx","['BX16']"
101189,"E 233 ST/KATONAH AV","40.896122","-73.866783","bronx","['BX16', 'BX31']"
101190,"E 233 ST/KEPLER AV","40.896694","-73.870369","bronx","['BX34', 'BX16', 'BXM4']"
101191,"E 233 ST/ONEIDA AV","40.89621","-73.87281","bronx","['BX34', 'BX16']"
101192,"E 233 ST/NAPIER AV","40.895741","-73.875214","bronx","['BX34', 'BX16', 'BXM4']"
101193,"BAINBRIDGE AV/JEROME AV","40.88662","-73.877975","bronx","['BX16', 'BXM4', 'BX34']"
101194,"BAINBRIDGE AV/E 212 ST","40.883137","-73.877899","bronx","['BX16', 'BXM4', 'BX34']"
101201,"E 134 ST/WILLOW AV","40.801674","-73.913078","bronx","['BX33']"
101207,"PROSPECT AV/E 149 ST","40.812626","-73.904221","bronx","['BX17']"
101208,"PROSPECT AV/KELLY ST","40.814976","-73.903374","bronx","['BX17']"
101209,"PROSPECT AV/E 156 ST","40.8176","-73.902367","bronx","['BX17']"
101210,"PROSPECT AV/WESTCHESTER AV","40.820221","-73.901268","bronx","['BX17']"
101211,"PROSPECT AV/E 163 ST","40.822418","-73.90036","bronx","['BX17']"
101212,"PROSPECT AV/E 165 ST","40.823933","-73.899727","bronx","['BX17']"
101213,"PROSPECT AV/E 166 ST","40.825558","-73.899048","bronx","['BX17']"
101214,"PROSPECT AV/HOME ST","40.828224","-73.897942","bronx","['BX17']"
101215,"PROSPECT AV/E 169 ST","40.829681","-73.897331","bronx","['BX17']"
101216,"PROSPECT AV/RITTER PL","40.831303","-73.896721","bronx","['BX17']"
101217,"PROSPECT AV/BOSTON RD","40.833424","-73.896263","bronx","['BX17']"
101218,"CROTONA AV/CLAREMONT PY","40.836357","-73.897621","bronx","['BX17']"
101219,"CROTONA AV/E 175 ST","40.84306","-73.893135","bronx","['BX17']"
101221,"CROTONA AV/E TREMONT AV","40.84528","-73.891136","bronx","['BX17']"
101222,"CROTONA AV/E 179 ST","40.847019","-73.889671","bronx","['BX17']"
101223,"CROTONA AV/E 180 ST","40.848","-73.888855","bronx","['BX17']"
101224,"CROTONA AV/E 182 ST","40.850182","-73.886482","bronx","['BX17']"
101225,"CROTONA AV/E 183 ST","40.852024","-73.884491","bronx","['BX17']"
101226,"CROTONA AV/E 187 ST","40.854191","-73.8834","bronx","['BX17']"
101227,"CROTONA AV/E FORDHAM RD","40.857189","-73.881889","bronx","['BX17']"
101231,"3 AV/E FORDHAM RD","40.861012","-73.89045","bronx","['BX15']"
101236,"CROTONA AV/E 189 ST","40.855827","-73.882751","bronx","['BX17']"
101237,"CROTONA AV/E 187 ST","40.853611","-73.883865","bronx","['BX17']"
101238,"CROTONA AV/E 183 ST","40.851521","-73.885056","bronx","['BX17']"
101239,"CROTONA AV/E 182 ST","40.850101","-73.88681","bronx","['BX17']"
101240,"CROTONA AV/E 180 ST","40.848263","-73.888824","bronx","['BX17']"
101241,"CROTONA AV/E 179 ST","40.846546","-73.890274","bronx","['BX17']"
101242,"CROTONA AV/E TREMONT AV","40.845531","-73.891121","bronx","['BX17']"
101244,"CROTONA AV/E 175 ST","40.842636","-73.893837","bronx","['BX17']"
101245,"CROTONA AV/CLAREMONT PY","40.836609","-73.897842","bronx","['BX17']"
101246,"PROSPECT AV/BOSTON RD","40.833614","-73.896507","bronx","['BX17']"
101247,"PROSPECT AV/RITTER PL","40.830708","-73.897156","bronx","['BX17']"
101248,"PROSPECT AV/E 169 ST","40.829277","-73.897736","bronx","['BX17']"
101249,"PROSPECT AV/HOME ST","40.827553","-73.898476","bronx","['BX17']"
101250,"PROSPECT AV/E 166 ST","40.825409","-73.899361","bronx","['BX17']"
101251,"PROSPECT AV/E 165 ST","40.823776","-73.90004","bronx","['BX17']"
101252,"PROSPECT AV/E 163 ST","40.821774","-73.900871","bronx","['BX17']"
101253,"PROSPECT AV/WESTCHESTER AV","40.81992","-73.901649","bronx","['BX17']"
101254,"PROSPECT AV/E 156 ST","40.81707","-73.902824","bronx","['BX17']"
101255,"PROSPECT AV/E 152 ST","40.814819","-73.903679","bronx","['BX17']"
101256,"PROSPECT AV/E 149 ST","40.812447","-73.904526","bronx","['BX17']"
101262,"E 135 ST/CYPRESS AV","40.8041","-73.91394","bronx","['BX17']"
101274,"W TREMONT AV/MONTGOMERY AV","40.851871","-73.916641","bronx","['BX18']"
101275,"MACOMBS RD/NELSON AV","40.848385","-73.916283","bronx","['BX18']"
101276,"MACOMBS RD/FEATHERBED LA","40.84549","-73.917229","bronx","['BX18']"
101277,"MACOMBS RD/GOBLE PL","40.844288","-73.917595","bronx","['BX18']"
101278,"MACOMBS RD/INWOOD AV","40.841923","-73.918068","bronx","['BX18']"
101282,"E 170 ST/SHERIDAN AV","40.838547","-73.912804","bronx","['BX11']"
101285,"INWOOD AV/MACOMBS RD","40.841671","-73.918045","bronx","['BX18']"
101286,"MACOMBS RD/GOBLE PL","40.844479","-73.917389","bronx","['BX18']"
101287,"MACOMBS RD/GRAND AV","40.846371","-73.916786","bronx","['BX18']"
101288,"MACOMBS RD/W 176 ST","40.849323","-73.915993","bronx","['BX18']"
101289,"W TREMONT AV/UNIVERSITY AV","40.850906","-73.915779","bronx","['BX18']"
101290,"W TREMONT AV/LORING PL S","40.852036","-73.916809","bronx","['BX18']"
101292,"UNDERCLIFF AV/SEDGWICK AV","40.852341","-73.919449","bronx","['BX18']"
101294,"UNDERCLIFF AV/W 174 ST","40.84758","-73.923248","bronx","['BX18']"
101295,"UNDERCLIFF AV/W 172 ST","40.84507","-73.924629","bronx","['BX18']"
101297,"SEDGWICK AV/W 172 ST","40.845852","-73.925301","bronx","['BX18']"
101306,"E 149 ST/EXTERIOR ST","40.819256","-73.930344","bronx","['BX19']"
101307,"E 149 ST/GRAND CONCOURSE","40.818378","-73.926865","bronx","['BX2', 'BX19']"
101309,"E 149 ST/MORRIS AV","40.817177","-73.922386","bronx","['BX2', 'BX19']"
101310,"E 149 ST/COURTLANDT AV","40.816544","-73.919792","bronx","['BX2', 'BX19']"
101312,"E 149 ST/BROOK AV","40.814716","-73.914604","bronx","['BX19']"
101313,"E 149 ST/ST ANN'S AV","40.814049","-73.912598","bronx","['BX17', 'BX19']"
101314,"E 149 ST/TRINITY AV","40.813358","-73.910179","bronx","['BX17', 'BX19']"
101315,"E 149 ST/JACKSON AV","40.813061","-73.908707","bronx","['BX17', 'BX19']"
101316,"E 149 ST/WALES AV","40.812778","-73.907135","bronx","['BX17', 'BX19']"
101318,"SOUTHERN BL/E 149 ST","40.81218","-73.903625","bronx","['BX19']"
101319,"SOUTHERN BL/LEGGETT AV","40.813713","-73.898758","bronx","['BX19']"
101320,"SOUTHERN BL/E 156 ST","40.815125","-73.897301","bronx","['BX19']"
101321,"SOUTHERN BL/LONGWOOD AV","40.816536","-73.895836","bronx","['BX19']"
101322,"SOUTHERN BL/TIFFANY ST","40.818542","-73.893761","bronx","['BX19']"
101324,"SOUTHERN BL/ALDUS ST","40.823177","-73.891716","bronx","['BX5', 'BX19']"
101327,"SOUTHERN BL/HOME ST","40.828468","-73.891762","bronx","['BX19']"
101328,"SOUTHERN BL/FREEMAN ST","40.829967","-73.891808","bronx","['BX19']"
101329,"SOUTHERN BL/JENNINGS ST","40.832287","-73.890709","bronx","['BX19']"
101330,"SOUTHERN BL/E 172 ST","40.833942","-73.889725","bronx","['BX19']"
101331,"SOUTHERN BL/E 173 ST","40.835602","-73.888756","bronx","['BX19']"
101332,"SOUTHERN BL/BOSTON RD","40.8372","-73.887787","bronx","['BX19']"
101335,"SOUTHERN BL/E TREMONT AV","40.843056","-73.88546","bronx","['BX19']"
101337,"SOUTHERN BL/E 180 ST","40.845821","-73.884445","bronx","['BX19']"
101347,"SOUTHERN BL/E 180 ST","40.846138","-73.884499","bronx","['BX19']"
101348,"SOUTHERN BL/E 179 ST","40.844658","-73.885414","bronx","['BX19']"
101352,"SOUTHERN BL/E 174 ST","40.837566","-73.887741","bronx","['BX19']"
101353,"SOUTHERN BL/E 173 ST","40.835823","-73.888748","bronx","['BX19']"
101354,"SOUTHERN BL/E 172 ST","40.834167","-73.889763","bronx","['BX19']"
101355,"SOUTHERN BL/JENNINGS ST","40.832527","-73.890724","bronx","['BX19']"
101356,"SOUTHERN BL/FREEMAN ST","40.830292","-73.891945","bronx","['BX19']"
101357,"SOUTHERN BL/HOME ST","40.828636","-73.892029","bronx","['BX19']"
101358,"SOUTHERN BL/E 167 ST","40.826904","-73.891991","bronx","['BX19']"
101359,"SOUTHERN BL/WESTCHESTER AV","40.824581","-73.8918","bronx","['BX19', 'BX5']"
101360,"SOUTHERN BL/ALDUS ST","40.822868","-73.891899","bronx","['BX19', 'BX5']"
101362,"SOUTHERN BL/TIFFANY ST","40.818478","-73.894127","bronx","['BX19']"
101363,"SOUTHERN BL/LONGWOOD AV","40.816078","-73.896606","bronx","['BX19']"
101364,"SOUTHERN BL/E 156 ST","40.814713","-73.898026","bronx","['BX19']"
101365,"SOUTHERN BL/LEGGETT AV","40.813438","-73.899826","bronx","['BX19']"
101366,"E 149 ST/SOUTHERN BL","40.812275","-73.903969","bronx","['BX19']"
101367,"E 149 ST/PROSPECT AV","40.812454","-73.904884","bronx","['BX17', 'BX19']"
101368,"E 149 ST/TINTON AV","40.812706","-73.906128","bronx","['BX17', 'BX19']"
101369,"E 149 ST/CONCORD AV","40.813206","-73.908531","bronx","['BX17', 'BX19']"
101370,"E 149 ST/TRINITY AV","40.813606","-73.910454","bronx","['BX17', 'BX19']"
101372,"E 149 ST/BROOK AV","40.815166","-73.915298","bronx","['BX19', 'BX4', 'BX4A']"
101374,"E 149 ST/COURTLANDT AV","40.816746","-73.919846","bronx","['BX19']"
101375,"E 149 ST/MORRIS AV","40.817532","-73.923012","bronx","['BX2', 'BX19']"
101377,"E 149 ST/GRAND CONCOURSE","40.818588","-73.927078","bronx","['BX19']"
101378,"E 149 ST/GERARD AV","40.819092","-73.929077","bronx","['BX19']"
101389,"3 AV/E 140 ST","40.812096","-73.925064","bronx","['BX2', 'BX21']"
101401,"3 AV/E 163 ST","40.824383","-73.908417","bronx","['BX15', 'BX21']"
101402,"BOSTON RD/E 166 ST","40.827328","-73.904709","bronx","['BX21']"
101403,"BOSTON RD/HOME ST","40.82877","-73.903046","bronx","['BX21']"
101405,"BOSTON RD/E 169 ST","40.831322","-73.899773","bronx","['BX21']"
101406,"BOSTON RD/PROSPECT AV","40.833607","-73.895966","bronx","['BX21']"
101407,"BOSTON RD/LOUIS NINE BL","40.835194","-73.893677","bronx","['BX21']"
101408,"BOSTON RD/SEABURY PL","40.835812","-73.890388","bronx","['BX21']"
101409,"BOSTON RD/SOUTHERN BL","40.836914","-73.888329","bronx","['BX21']"
101410,"BOSTON RD/VYSE AV","40.839111","-73.884628","bronx","['BX21']"
101411,"BOSTON RD/E TREMONT AV","40.840065","-73.880325","bronx","['BX21']"
101413,"E TREMONT AV/BRONX PARK AV","40.839848","-73.875732","bronx","['BX42', 'BX21', 'BX40']"
101414,"MORRIS PK AV/E TREMONT AV","40.840126","-73.873192","bronx","['BX21']"
101415,"MORRIS PK AV/ADAMS ST","40.841492","-73.872192","bronx","['BXM10', 'BX21']"
101416,"MORRIS PK AV/TAYLOR AV","40.843666","-73.869904","bronx","['BX21']"
101418,"MORRIS PK AV/WHITE PLAINS RD","40.84523","-73.865639","bronx","['BXM10', 'BX21']"
101419,"MORRIS PK AV/BARNES AV","40.845955","-73.862152","bronx","['BX21']"
101420,"MORRIS PK AV/BRONXDALE AV","40.846489","-73.859566","bronx","['BXM10', 'BX21']"
101421,"MORRIS PK AV/RADCLIFF AV","40.847813","-73.856667","bronx","['BX21']"
101422,"MORRIS PK AV/HONE AV","40.848843","-73.854385","bronx","['BXM10', 'BX21']"
101423,"MORRIS PK AV/WILLIAMSBRIDGE RD","40.850155","-73.851471","bronx","['BXM10', 'BX21']"
101424,"MORRIS PK AV/SEMINOLE AV","40.851036","-73.848419","bronx","['BX21']"
101425,"MORRIS PK AV/EASTCHESTER RD","40.851067","-73.844604","bronx","['BXM10', 'BX21']"
101426,"EASTCHESTER RD/SACKETT AV","40.849106","-73.845177","bronx","['BX21', 'BX31']"
101435,"EASTCHESTER RD/BASSETT AV","40.847797","-73.844727","bronx","['BX21', 'BX31']"
101437,"MORRIS PK AV/EASTCHESTER RD","40.851318","-73.844704","bronx","['BXM10', 'BX21']"
101438,"MORRIS PK AV/SEMINOLE AV","40.851192","-73.848083","bronx","['BX21']"
101440,"MORRIS PK AV/HONE AV","40.848759","-73.854996","bronx","['BXM10', 'BX21']"
101441,"MORRIS PK AV/RADCLIFF AV","40.847637","-73.857506","bronx","['BX21']"
101443,"MORRIS PK AV/BARNES AV","40.845955","-73.863007","bronx","['BX21']"
101444,"MORRIS PK AV/WHITE PLAINS RD","40.845211","-73.866608","bronx","['BXM10', 'BX21']"
101445,"MORRIS PK AV/AMETHYST ST","40.844723","-73.868523","bronx","['BX21']"
101446,"MORRIS PK AV/MELVILLE ST","40.843216","-73.870956","bronx","['BX21']"
101447,"MORRIS PK AV/E 180 ST","40.840778","-73.872993","bronx","['BXM10', 'BX21']"
101448,"E TREMONT AV/MORRIS PK AV","40.839878","-73.873985","bronx","['BX42', 'BX21', 'BX40']"
101452,"BOSTON RD/E TREMONT AV F/S","40.840229","-73.880295","bronx","['BX36', 'BX21']"
101453,"BOSTON RD/VYSE AV","40.839527","-73.883667","bronx","['BX36', 'BX21']"
101455,"BOSTON RD/SOUTHERN BL","40.837128","-73.888351","bronx","['BX21']"
101456,"BOSTON RD/E 173 ST","40.836021","-73.890381","bronx","['BX21']"
101457,"BOSTON RD/LOUIS NINE BL","40.834621","-73.894562","bronx","['BX21']"
101458,"BOSTON RD/PROSPECT AV","40.833427","-73.896782","bronx","['BX21']"
101459,"BOSTON RD/E 169 ST","40.830925","-73.900787","bronx","['BX21']"
101460,"BOSTON RD/E 168 ST","40.829372","-73.902634","bronx","['BX21']"
101461,"BOSTON RD/E 166 ST","40.827072","-73.905266","bronx","['BX21']"
101469,"3 AV/E 148 ST","40.815342","-73.919121","bronx","['BX21']"
101471,"3 AV/E 142 ST","40.812885","-73.923882","bronx","['BX2', 'BX21']"
101472,"3 AV/E 138 ST","40.811012","-73.927475","bronx","['BX1', 'BX2', 'BX21', 'BX32']"
101473,"E 136 ST/LINCOLN AV","40.809654","-73.92836","bronx","['BX1', 'BX2', 'BX21', 'BX32']"
101478,"CASTLE HILL AV/NORTON AV","40.814728","-73.846916","bronx","['BX22']"
101479,"CASTLE HILL AV/LACOMBE AV","40.817261","-73.847488","bronx","['BX22']"
101480,"CASTLE HILL AV/RANDALL AV","40.81942","-73.847984","bronx","['BX22']"
101481,"CASTLE HILL AV/SEWARD AV","40.821465","-73.84848","bronx","['BX22']"
101484,"CASTLE HILL AV/QUIMBY AV","40.826088","-73.849564","bronx","['BX5', 'BX22']"
101485,"CASTLE HILL AV/BRUCKNER BL","40.8279","-73.849983","bronx","['BX22']"
101486,"CASTLE HILL AV/WATSON AV","40.829689","-73.850403","bronx","['BX22']"
101487,"CASTLE HILL AV/CROSS BX SVC RD N","40.830818","-73.850647","bronx","['BX22']"
101488,"CASTLE HILL AV/GLEASON AV","40.832241","-73.850998","bronx","['BX22']"
101489,"CASTLE HILL AV/WESTCHESTER AV","40.834553","-73.851654","bronx","['BX22']"
101490,"STARLING AV/PURDY ST","40.836342","-73.853096","bronx","['BX22']"
101491,"STARLING AV/UNIONPORT RD","40.836029","-73.855736","bronx","['BX22']"
101494,"UNIONPORT RD/E TREMONT AV","40.841213","-73.863403","bronx","['BX22']"
101496,"WHITE PLAINS RD/VAN NEST AV","40.844086","-73.865593","bronx","['BX39', 'BX22']"
101497,"WHITE PLAINS RD/MORRIS PK AV","40.845592","-73.866135","bronx","['BX22', 'BX39']"
101498,"WHITE PLAINS RD/RHINELANDER AV","40.847847","-73.866951","bronx","['BX22', 'BX39']"
101499,"WHITE PLAINS RD/BRONXDALE AV","40.851307","-73.867691","bronx","['BX22', 'BX39']"
101512,"RESERVOIR AV/W 195 ST","40.869503","-73.898933","bronx","['BX32', 'BX22']"
101525,"GOULDEN AV/BEDFORD PK BL","40.875294","-73.894409","bronx","['BX22']"
101530,"VALENTINE AV/E 192 ST","40.864204","-73.894531","bronx","['BX28', 'BX38']"
101540,"WHITE PLAINS RD/PELHAM PY","40.856876","-73.867737","bronx","['BX39']"
101541,"BRONX PARK E/LYDIG AV","40.853935","-73.869385","bronx","['BX22']"
101542,"BRONX PARK E/BRADY AV","40.852493","-73.868866","bronx","['BX22']"
101543,"BRONX PK E/UNIONPORT RD","40.850582","-73.867958","bronx","['BX39', 'BX22']"
101545,"WHITE PLAINS RD/RHINELANDER AV","40.847164","-73.866943","bronx","['BX39', 'BX22']"
101547,"WHITE PLAINS RD/VAN NEST AV","40.843445","-73.865601","bronx","['BX39', 'BX22']"
101548,"UNIONPORT RD/E TREMONT AV","40.841","-73.863403","bronx","['BX22']"
101551,"UNIONPORT RD/STARLING AV","40.836002","-73.856171","bronx","['BX22']"
101552,"STARLING AV/PURDY ST","40.836224","-73.852783","bronx","['BX22']"
101553,"CASTLE HILL AV/WESTCHESTER AV","40.833828","-73.851654","bronx","['BX22']"
101554,"CASTLE HILL AV/GLEASON AV","40.8316","-73.851082","bronx","['BX22']"
101555,"CASTLE HILL AV/CROSS BX SVC RD N","40.830486","-73.8507","bronx","['BX22']"
101556,"CASTLE HILL AV/CHATTERTON AV","40.828018","-73.85025","bronx","['BX22']"
101557,"CASTLE HILL AV/BRUCKNER BL","40.826561","-73.849915","bronx","['BX5', 'BX22']"
101560,"CASTLE HILL AV/VIRGIL PL","40.822174","-73.848885","bronx","['BX22']"
101561,"CASTLE HILL AV/SEWARD AV","40.82077","-73.848579","bronx","['BX22']"
101562,"CASTLE HILL AV/RANDALL AV","40.818604","-73.848068","bronx","['BX22']"
101563,"CASTLE HILL AV/LACOMBE AV","40.817005","-73.847702","bronx","['BX22']"
101564,"CASTLE HILL AV/NORTON AV","40.814484","-73.847092","bronx","['BX22']"
101687,"JEROME AV/E 196 ST","40.869076","-73.896004","bronx","['BX28', 'BX38']"
101688,"JEROME AV/MORRIS AV","40.870949","-73.893829","bronx","['BX28', 'BX38']"
101691,"BEDFORD PK BL/GRAND CONCOURSE","40.871658","-73.887535","bronx","['BX26']"
101692,"BEDFORD PK BL/BAINBRIDGE AV","40.869884","-73.885323","bronx","['BX26']"
101693,"BEDFORD PK BL/MARION AV","40.868328","-73.884644","bronx","['BX26']"
101694,"BEDFORD PK BL/WEBSTER AV","40.866871","-73.883461","bronx","['BX26']"
101695,"KAZIMIROFF/BOTANICAL GARDENS E","40.866661","-73.880989","bronx","['BX26']"
101696,"ALLERTON AV/BRONX PK E","40.865284","-73.869919","bronx","['BX26']"
101697,"ALLERTON AV/WHITE PLAINS RD","40.865353","-73.866867","bronx","['BX26']"
101698,"ALLERTON AV/HOLLAND AV","40.865387","-73.86499","bronx","['BX26']"
101699,"ALLERTON AV/BARNES AV","40.865425","-73.863075","bronx","['BX26']"
101700,"ALLERTON AV/BRONXWOOD AV","40.865456","-73.861771","bronx","['BX26']"
101702,"ALLERTON AV/HONE AV","40.865372","-73.857307","bronx","['BX26']"
101703,"ALLERTON AV/LACONIA AV","40.865337","-73.855316","bronx","['BX26']"
101704,"ALLERTON AV/HERING AV","40.865307","-73.853416","bronx","['BX26']"
101705,"ALLERTON AV/PEARSALL AV","40.865269","-73.851532","bronx","['BX26']"
101706,"ALLERTON AV/WILSON AV","40.865215","-73.848663","bronx","['BX26']"
101707,"ALLERTON AV/FISH AV","40.865192","-73.847321","bronx","['BX26']"
101708,"ALLERTON AV/MORGAN AV","40.865158","-73.845428","bronx","['BX26']"
101709,"ALLERTON AV/EASTCHESTER RD","40.865124","-73.843544","bronx","['BX26']"
101710,"ALLERTON AV/WOODHULL AV","40.865074","-73.84127","bronx","['BX26']"
101711,"ALLERTON AV/WESTERVELT AV","40.865047","-73.839401","bronx","['BX26']"
101712,"ALLERTON AV/LODOVICK AV","40.865013","-73.837151","bronx","['BX26']"
101713,"BARTOW AV/GUNTHER AV","40.866959","-73.837128","bronx","['BX26', 'BX28', 'BX38']"
101714,"BARTOW AV/ELY AV","40.867825","-73.834373","bronx","['BX26', 'BX28', 'BX38']"
101715,"BARTOW AV/EDSON AV","40.868252","-73.83297","bronx","['BX26', 'BX28', 'BX38']"
101716,"BAYCHESTER AV/ALDRICH ST","40.870655","-73.832573","bronx","['Q50', 'BX30', 'BX28', 'BX38', 'BX23']"
101717,"BAYCHESTER AV/DONIZETTI PL","40.876369","-73.833679","bronx","['Q50', 'BX23', 'BX28', 'BX30', 'BX38']"
101718,"BAYCHESTER AV/DARROW PL","40.878525","-73.832848","bronx","['Q50', 'BX23', 'BX28', 'BX38', 'BX30']"
101719,"DREISER LOOP/CO-OP CITY BL","40.877872","-73.829666","bronx","['BX23', 'BX28', 'BX30', 'BX38']"
101721,"DREISER LOOP/DEBS PL","40.876987","-73.828072","bronx","['BX23', 'BX28', 'BX30', 'BX38']"
101722,"DREISER LOOP/CO-OP CITY BL","40.878342","-73.828056","bronx","['BX23', 'BX28', 'BX30', 'BX38']"
101723,"CO-OP CITY BL/CARVER LOOP #2","40.879402","-73.824944","bronx","['Q50', 'BX28', 'BX38', 'BX30', 'BXM7', 'BX23']"
101724,"CO-OP CITY BL/BELLAMY LOOP N","40.87381","-73.82457","bronx","['Q50', 'BX23', 'BX28', 'BXM7', 'BX38']"
101725,"CO-OP CITY BL/BELLAMY LOOP S","40.871925","-73.82476","bronx","['Q50', 'BX38', 'BX28', 'BX23']"
101726,"ASCH LOOP/CO-OP CITY BL","40.870663","-73.826263","bronx","['BX26', 'BX23', 'BX28', 'BX30']"
101727,"ASCH LOOP/ALCOTT PL","40.871471","-73.830406","bronx","['BX26', 'BX30', 'BX28', 'BXM7', 'BX23']"
101728,"ASCH LOOP/BARTOW AV","40.869286","-73.830666","bronx","['BX26', 'BX30', 'BX28', 'BX23']"
101729,"HUTCHINSON RVR PKY/EINSTEIN LOOP N","40.865444","-73.823761","bronx","['Q50', 'BX28', 'BX29', 'BX26', 'BX30', 'BX23']"
101730,"HUTCHINSON RVR PKY/EINSTEIN LOOP S","40.864525","-73.824593","bronx","['Q50', 'BX28', 'BX29', 'BX26', 'BX30', 'BX23']"
101731,"HUNTER AV/BOLLER AV","40.862331","-73.825569","bronx","['Q50', 'BX26', 'BX30', 'BX28', 'BX23']"
101732,"ERSKINE PL/EARHART LA","40.860828","-73.82267","bronx","['BX26', 'BX28', 'BX30']"
101734,"EARHART LA/ERSKINE PL","40.861115","-73.822548","bronx","['Q50', 'BX26', 'BX30', 'BX28', 'BX23']"
101735,"HUNTER AV/EARHART LA","40.862","-73.824448","bronx","['Q50', 'BX26', 'BX30', 'BX28', 'BX23']"
101737,"HUTCHINSON RVR PY E/EINSTEIN LOOP S","40.865013","-73.823883","bronx","['Q50', 'BX28', 'BX29', 'BX26', 'BX30', 'BX23']"
101738,"HUTCHINSON RVR PY E/EINSTEIN LOOP N","40.865982","-73.822937","bronx","['Q50', 'BX28', 'BX29', 'BX26', 'BX30', 'BX23']"
101739,"BARTOW AV/CO-OP CITY BL","40.869598","-73.828712","bronx","['BX12+', 'BX28', 'BX12']"
101740,"ASCH LOOP/BARTOW AV","40.869415","-73.830513","bronx","['BX26', 'BX23', 'BX30']"
101742,"ASCH LOOP/CO-OP CITY BL","40.870438","-73.826118","bronx","['BX26', 'BX23', 'BX28', 'BX30']"
101743,"CO-OP CITY BL/BELLAMY LOOP N","40.874344","-73.824318","bronx","['Q50', 'BX38', 'BX28', 'BXM7', 'BX23']"
101744,"CO-OP CITY BL/PEARTREE AV","40.880024","-73.82386","bronx","['Q50', 'BX23', 'BX28', 'BX38', 'BX30']"
101745,"CO-OP CITY BL/CARVER LOOP  #1","40.879368","-73.825897","bronx","['Q50', 'BX28', 'BX38', 'BX23', 'BXM7', 'BX30']"
101746,"DREISER LOOP/CO-OP CITY BL","40.878033","-73.828224","bronx","['BX23', 'BX28', 'BX38', 'BX30']"
101747,"DREISER LOOP/DEBS PL","40.876766","-73.82843","bronx","['BX23', 'BX28', 'BX38', 'BX30']"
101749,"DREISER LOOP/CO-OP CITY BL","40.878094","-73.829437","bronx","['BX23', 'BX28', 'BX38', 'BX30']"
101750,"BAYCHESTER AV/DARROW PL","40.878632","-73.833092","bronx","['Q50', 'BX23', 'BX28', 'BX38', 'BX30']"
101751,"BAYCHESTER AV/DONIZETTI PL","40.876305","-73.834","bronx","['Q50', 'BX23', 'BX28', 'BX38', 'BX30']"
101752,"BAYCHESTER AV/ALDRICH ST","40.8699","-73.832512","bronx","['Q50', 'BX23', 'BX28', 'BX38', 'BX30']"
101754,"BARTOW AV/BRUNNER AV","40.867538","-73.835831","bronx","['BX26', 'BX28', 'BX38']"
101755,"GUNTHER AV/E GUN HILL RD","40.865589","-73.836632","bronx","['BX26']"
101756,"ALLERTON AV/WESTERVELT AV","40.865208","-73.839928","bronx","['BX26']"
101757,"ALLERTON AV/EASTCHESTER RD","40.865292","-73.843163","bronx","['BX26']"
101758,"ALLERTON AV/MORGAN AV","40.865326","-73.845192","bronx","['BX26']"
101759,"ALLERTON AV/FISH AV","40.865364","-73.847061","bronx","['BX26']"
101760,"ALLERTON AV/WILSON AV","40.865402","-73.848953","bronx","['BX26']"
101761,"ALLERTON AV/PEARSALL AV","40.865456","-73.851822","bronx","['BX26']"
101762,"ALLERTON AV/HERING AV","40.865501","-73.854256","bronx","['BX26']"
101763,"ALLERTON AV/LACONIA AV","40.865536","-73.856255","bronx","['BX26']"
101764,"ALLERTON AV/HONE AV","40.865574","-73.85817","bronx","['BX26']"
101765,"ALLERTON AV/WILLIAMSBRIDGE RD","40.865608","-73.860229","bronx","['BX26']"
101766,"ALLERTON AV/BOSTON RD","40.865627","-73.861931","bronx","['BX26']"
101767,"ALLERTON AV/MATTHEWS AV","40.865604","-73.862984","bronx","['BX26']"
101768,"ALLERTON AV/HOLLAND AV","40.865551","-73.865799","bronx","['BX26']"
101769,"ALLERTON AV/WHITE PLAINS RD","40.865505","-73.867874","bronx","['BX26']"
101770,"ALLERTON AV/BARKER AV","40.865471","-73.869591","bronx","['BX26']"
101771,"KAZIMIROFF BL/BOTANICAL GARDENS","40.866955","-73.880844","bronx","['BX26']"
101772,"BEDFORD PK BL/WEBSTER AV","40.86787","-73.884018","bronx","['BX26']"
101773,"BEDFORD PK BL/MARION AV","40.86908","-73.884712","bronx","['BX26']"
101774,"BEDFORD PK BL/BRIGGS AV","40.870705","-73.886047","bronx","['BX26', 'BX34']"
101779,"JEROME AV/MORRIS AV","40.87125","-73.893509","bronx","['BX28', 'BX38']"
101780,"JEROME AV/E 196 ST","40.869347","-73.896027","bronx","['BX28', 'BX38']"
101781,"JEROME AV/W KINGSBRIDGE RD","40.867596","-73.897385","bronx","['BX28', 'BX32', 'BX38']"
101784,"W FARMS RD/WESTCHESTER AV","40.824986","-73.891502","bronx","['BX35', 'BX27']"
101789,"WESTCHESTER AV/BRONX RIVER AV","40.828236","-73.883064","bronx","['BX27']"
101794,"MORRISON AV/WESTCHESTER AV","40.829098","-73.874573","bronx","['BX27']"
101795,"MORRISON AV/WATSON AV","40.826763","-73.874023","bronx","['BX27']"
101796,"WATSON AV/SOUNDVIEW AV","40.826923","-73.871368","bronx","['BX27']"
101797,"WATSON AV/CROES AV","40.827145","-73.869682","bronx","['BX27']"
101798,"ROSEDALE AV/1055 ROSEDALE AV","40.826283","-73.868187","bronx","['BX27']"
101799,"ROSEDALE AV/BRUCKNER BL","40.824474","-73.867676","bronx","['BX27']"
101800,"ROSEDALE AV/STORY AV","40.823181","-73.867371","bronx","['BX27']"
101811,"SOUNDVIEW AV/PATTERSON AV","40.813435","-73.857956","bronx","['BX27']"
101812,"SOUNDVIEW AV/OBRIEN AV","40.811489","-73.856316","bronx","['BX27']"
101813,"SOUNDVIEW AV/GILDERSLEEVE AV","40.809418","-73.855453","bronx","['BX27', 'BX39']"
101814,"SOUNDVIEW AV/NEWMAN AV","40.80825","-73.853683","bronx","['BX27', 'BX39']"
101819,"SOUNDVIEW AV/STEPHENS AV","40.807869","-73.852715","bronx","['BX27', 'BX39']"
101820,"SOUNDVIEW AV/GILDERSLEEVE AV","40.809242","-73.855026","bronx","['BX27', 'BX39']"
101821,"SOUNDVIEW AV/O'BRIEN AV","40.811317","-73.855942","bronx","['BX27']"
101822,"SOUNDVIEW AV/PATTERSON AV","40.813648","-73.85788","bronx","['BX27']"
101833,"ROSEDALE AV/STORY AV","40.823444","-73.867157","bronx","['BX27']"
101834,"ROSEDALE AV/BRUCKNER BL","40.824749","-73.867462","bronx","['BX27']"
101835,"ROSEDALE AV/1040 ROSEDALE AV","40.826424","-73.867767","bronx","['BX27']"
101836,"WATSON AV/ROSEDALE AV","40.827435","-73.868706","bronx","['BX27']"
101837,"WATSON AV/CROES AV","40.827187","-73.870544","bronx","['BX27']"
101838,"WATSON AV/METCALF AV","40.827015","-73.871811","bronx","['BX27']"
101839,"MORRISON AV/WATSON AV","40.827023","-73.873848","bronx","['BX27']"
101840,"MORRISON AV/WESTCHESTER AV","40.829395","-73.874397","bronx","['BX27']"
101861,"E GUN HILL RD/TRYON AV","40.87999","-73.876442","bronx","['BX38', 'BX28', 'BX30']"
101862,"E GUN HILL RD/PUTNAM PL","40.879333","-73.875076","bronx","['BX38', 'BX28', 'BX30']"
101863,"E GUN HILL RD/HULL AV","40.878708","-73.8731","bronx","['BX38', 'BX28', 'BX30']"
101865,"E GUN HILL RD/OLINVILLE AV","40.877766","-73.868187","bronx","['BX41', 'BX28', 'BX38', 'BX30']"
101866,"E GUN HILL RD/WHITE PLAINS RD","40.877087","-73.865829","bronx","['BX38', 'BX28', 'BX30']"
101867,"E GUN HILL RD/BARNES AV","40.875969","-73.862312","bronx","['BX38', 'BX28', 'BX30']"
101868,"E GUN HILL RD/BRONXWOOD AV","40.87534","-73.86026","bronx","['BX38', 'BX28', 'BX30']"
101869,"E GUN HILL RD/PAULDING AV","40.874496","-73.857697","bronx","['BX38', 'BX28', 'BX30']"
101870,"E GUN HILL RD/LACONIA AV","40.873657","-73.855064","bronx","['BX38', 'BX28', 'BX30']"
101871,"E GUN HILL RD/HERING AV","40.873055","-73.853172","bronx","['BX28', 'BX38']"
101872,"E GUN HILL RD/PEARSALL AV","40.872463","-73.851318","bronx","['BX28', 'BX38']"
101873,"E GUN HILL RD/BURKE AV","40.871738","-73.849037","bronx","['BX28', 'BX38']"
101874,"E GUN HILL RD/YOUNG AV","40.871059","-73.847588","bronx","['BX28', 'BX38']"
101875,"E GUN HILL RD/DEWITT PL","40.869915","-73.84539","bronx","['BX28', 'BX38']"
101876,"E GUN HILL RD/EASTCHESTER RD","40.868492","-73.842659","bronx","['BX28', 'BX38']"
101877,"E GUN HILL RD/ARNOW AV","40.867756","-73.841179","bronx","['BX28', 'BX38']"
101923,"E GUN HILL RD/KINGSLAND AV","40.866863","-73.839111","bronx","['BX28', 'BX38']"
101924,"E GUN HILL RD/EASTCHESTER RD","40.868469","-73.842201","bronx","['BX28', 'BX38']"
101925,"E GUN HILL RD/KNAPP ST","40.869984","-73.845108","bronx","['BX28', 'BX38']"
101926,"E GUN HILL RD/FISH AV","40.871059","-73.847183","bronx","['BX28', 'BX38']"
101927,"E GUN HILL RD/BURKE AV","40.871655","-73.84832","bronx","['BX28', 'BX38']"
101928,"E GUN HILL RD/GIVAN AV","40.872852","-73.851936","bronx","['BX28', 'BX38']"
101929,"E GUN HILL RD/BOSTON RD","40.873512","-73.854012","bronx","['BX38', 'BX28', 'BX30']"
101930,"E GUN HILL RD/LACONIA AV","40.874172","-73.856079","bronx","['BX38', 'BX28', 'BX30']"
101931,"E GUN HILL RD/PAULDING AV","40.874908","-73.858368","bronx","['BX38', 'BX28', 'BX30']"
101933,"E GUN HILL RD/BARNES AV","40.876221","-73.862495","bronx","['BX38', 'BX28', 'BX30']"
101934,"E GUN HILL RD/WHITE PLAINS RD","40.87735","-73.866066","bronx","['BX30']"
101937,"E GUN HILL RD/HULL AV","40.87904","-73.873848","bronx","['BX38', 'BX28', 'BX30']"
101938,"E GUN HILL RD/TRYON AV","40.880516","-73.877106","bronx","['BX38', 'BX28', 'BX30']"
101956,"WEBSTER AV/E 204 ST","40.871342","-73.876404","bronx","['BX41+', 'BX41']"
101964,"BOSTON RD/E GUN HILL RD","40.873623","-73.85302","bronx","['BX30']"
101965,"BOSTON RD/WILSON AV","40.875626","-73.850182","bronx","['BX30']"
101966,"BOSTON RD/SEYMOUR AV","40.876247","-73.848442","bronx","['BX30']"
101967,"BOSTON RD/EASTCHESTER RD","40.877113","-73.845764","bronx","['BX30']"
101968,"BOSTON RD/KINGSLAND AV","40.878094","-73.844345","bronx","['BX30']"
101969,"BOSTON RD/WICKHAM AV","40.879585","-73.842255","bronx","['BX30']"
101970,"BOSTON RD/ELY AV","40.880436","-73.84066","bronx","['BX30']"
101971,"BOSTON RD/BAYCHESTER AV","40.8811","-73.838875","bronx","['BX30']"
101972,"BOSTON RD/BIVONA ST","40.884228","-73.833191","bronx","['BX30']"
101973,"BOSTON RD/STEENWICK AV","40.884598","-73.831429","bronx","['BX30']"
101975,"PEARTREE AV/GIVAN AV","40.881397","-73.823257","bronx","['BX30']"
102010,"BOSTON RD/BIVONA ST","40.884338","-73.833572","bronx","['BX30']"
102011,"BOSTON RD/BAYCHESTER AV","40.881268","-73.838921","bronx","['BX30']"
102012,"BOSTON RD/GRACE AV","40.88052","-73.841034","bronx","['BX30']"
102013,"BOSTON RD/BRUNER AV","40.879688","-73.842529","bronx","['BX30']"
102014,"BOSTON RD/TIEMANN AV","40.878647","-73.84404","bronx","['BX30']"
102015,"BOSTON RD/EASTCHESTER RD","40.876926","-73.847031","bronx","['BX30']"
102016,"BOSTON RD/SEYMOUR AV","40.876091","-73.849602","bronx","['BX30']"
102017,"BOSTON RD/WILSON AV","40.875278","-73.851219","bronx","['BX30']"
102030,"BAINBRIDGE AV/E 206 ST","40.875061","-73.879547","bronx","['BX16', 'BX10']"
102034,"EASTCHESTER RD/WATERS PL","40.846764","-73.844551","bronx","['BX21', 'BX31']"
102037,"EASTCHESTER RD/MORRIS PK AV","40.851322","-73.844093","bronx","['BX31']"
102038,"EASTCHESTER RD/WILKINSON AV","40.852852","-73.843147","bronx","['BX31']"
102039,"EASTCHESTER RD/SEMINOLE ST","40.854973","-73.843636","bronx","['BX31']"
102041,"EASTCHESTER RD/PELHAM PY","40.858021","-73.8433","bronx","['BX31']"
102042,"EASTCHESTER RD/ASTOR AV","40.859825","-73.842934","bronx","['BX31']"
102043,"EASTCHESTER RD/WARING AV","40.861217","-73.843132","bronx","['BX31']"
102044,"EASTCHESTER RD/MACE AV","40.863102","-73.843307","bronx","['BXM10', 'BX31']"
102045,"EASTCHESTER RD/ALLERTON AV","40.865562","-73.843231","bronx","['BX31']"
102046,"EASTCHESTER RD/SCHORR PL","40.86702","-73.842896","bronx","['BX31']"
102047,"EASTCHESTER RD/E GUN HILL RD","40.868202","-73.842392","bronx","['BXM10', 'BX31']"
102048,"EASTCHESTER RD/ADEE AV","40.869747","-73.842705","bronx","['BX31']"
102049,"EASTCHESTER RD/HAMMERSLEY AV","40.871651","-73.843582","bronx","['BX31']"
102050,"EASTCHESTER RD/BURKE AV","40.873394","-73.844284","bronx","['BXM10', 'BX31']"
102051,"EASTCHESTER RD/GIVAN AV","40.875057","-73.845177","bronx","['BX31']"
102052,"EASTCHESTER RD/BOSTON RD","40.876934","-73.846191","bronx","['BXM10', 'BX31']"
102053,"EASTCHESTER RD/CHESTER ST","40.87928","-73.847466","bronx","['BX31']"
102054,"EASTCHESTER RD/NEEDHAM AV","40.8801","-73.847908","bronx","['BX31']"
102055,"EASTCHESTER RD/E 222 ST","40.881111","-73.84845","bronx","['BX31']"
102056,"E 225 ST/LACONIA AV","40.88401","-73.8489","bronx","['BX31']"
102059,"E 229 ST/SCHIEFFELIN AV","40.885334","-73.843391","bronx","['BX31']"
102061,"LACONIA AV/GRENADA PL","40.888035","-73.846718","bronx","['BX31']"
102062,"LACONIA AV/E 233 ST","40.88958","-73.845871","bronx","['BX31']"
102064,"E 233 ST/BUSSING AV","40.892319","-73.853691","bronx","['BX31']"
102065,"E 233 ST/WHITE PLAINS RD","40.893631","-73.857773","bronx","['BX31']"
102066,"E 233 ST/CARPENTER AV","40.894531","-73.860611","bronx","['BX31']"
102071,"E 233 ST/BRONX BL","40.894413","-73.860924","bronx","['BX31']"
102072,"E 233 ST/WHITE PLAINS RD","40.893135","-73.856865","bronx","['BX31']"
102073,"E 233 ST/BUSSING AV","40.891941","-73.853119","bronx","['BX31']"
102074,"E 233 ST/PAULDING AV","40.89043","-73.848381","bronx","['BX31']"
102075,"LACONIA AV/E 232 ST","40.888828","-73.846535","bronx","['BX31']"
102076,"LACONIA AV/E 230 ST","40.887814","-73.847099","bronx","['BX31']"
102077,"E 229 ST/LACONIA AV","40.886768","-73.847054","bronx","['BX31']"
102079,"E 229 ST/SCHIEFFELIN AV","40.884697","-73.842911","bronx","['BX31']"
102081,"E 225 ST/SCHIEFFELIN PL","40.882492","-73.84491","bronx","['BX31']"
102083,"LACONIA AV/E 225 ST","40.883984","-73.849586","bronx","['BX31']"
102084,"EASTCHESTER RD/NEEDHAM AV","40.880177","-73.848198","bronx","['BX31']"
102085,"EASTCHESTER RD/CHESTER ST","40.878754","-73.847427","bronx","['BX31']"
102086,"EASTCHESTER RD/BOSTON RD","40.877144","-73.84655","bronx","['BX31']"
102087,"EASTCHESTER RD/GIVAN AV","40.874367","-73.845055","bronx","['BX31']"
102088,"EASTCHESTER RD/BURKE AV","40.872688","-73.844208","bronx","['BXM10', 'BX31']"
102089,"EASTCHESTER RD/HAMMERSLEY AV","40.87088","-73.843521","bronx","['BX31']"
102090,"EASTCHESTER RD/E GUN HILL RD","40.868866","-73.842453","bronx","['BXM10', 'BX31']"
102092,"EASTCHESTER RD/ALLERTON AV","40.864834","-73.843483","bronx","['BX31']"
102093,"EASTCHESTER RD/MACE AV","40.862434","-73.843536","bronx","['BXM10', 'BX31']"
102094,"EASTCHESTER RD/WARING AV","40.860561","-73.843269","bronx","['BX31']"
102095,"EASTCHESTER RD/ASTOR AV","40.859177","-73.843079","bronx","['BX31']"
102097,"EASTCHESTER RD/PELHAM PY","40.857841","-73.843613","bronx","['BX31']"
102098,"EASTCHESTER RD/SEMINOLE ST","40.854153","-73.843651","bronx","['BX31']"
102099,"EASTCHESTER RD/WILKINSON AV","40.852875","-73.843452","bronx","['BX31']"
102100,"EASTCHESTER RD/MORRIS PK AV","40.851349","-73.844322","bronx","['BX31']"
102107,"LINCOLN AV/E 138 ST","40.810757","-73.927162","bronx","['BX32']"
102108,"MORRIS AV/E 140 ST","40.812851","-73.925728","bronx","['BX32']"
102111,"MORRIS AV/E 149 ST","40.817703","-73.922516","bronx","['BX32']"
102112,"MORRIS AV/E 151 ST","40.819057","-73.92189","bronx","['BX32']"
102113,"MORRIS AV/E 153 ST","40.820492","-73.921227","bronx","['BX32']"
102114,"MORRIS AV/E 156 ST","40.821899","-73.920403","bronx","['BX32']"
102115,"MORRIS AV/E 158 ST","40.824097","-73.919182","bronx","['BX32']"
102116,"MORRIS AV/E 161 ST","40.825859","-73.918205","bronx","['BX32']"
102117,"MORRIS AV/E 163 ST","40.827496","-73.917305","bronx","['BX32']"
102118,"MORRIS AV/E 165 ST","40.829536","-73.916168","bronx","['BX32']"
102119,"MORRIS AV/E 166 ST","40.830418","-73.915672","bronx","['BX32']"
102121,"MORRIS AV/E 167 ST","40.832996","-73.914154","bronx","['BX32']"
102122,"MORRIS AV/E 169 ST","40.835567","-73.912643","bronx","['BX32']"
102123,"MORRIS AV/E 170 ST","40.838181","-73.911102","bronx","['BX32']"
102124,"MORRIS AV/E 171 ST","40.839241","-73.910484","bronx","['BX32']"